Street Name,Ward Name,Postcode,Switch Regime,Wattage,Easting,Northing,Longitude,Latitude,Spatial Accuracy,Location,Organisation URI,Last Uploaded
MILL LANE,FORTUNE GREEN,NW6,35/18,65,524803,185110,-0.201358,51.551088,Plotted By Council Officer,"(51.551088, -0.201358)",http://opendatacommunities.org/id/london-borough-council/camden,23/08/2018 09:00:09 PM
KING HENRY'S ROAD,SWISS COTTAGE,NW3,35/18,90,526991,184116,-0.170176,51.541667,Plotted By Council Officer,"(51.541667, -0.170176)",http://opendatacommunities.org/id/london-borough-council/camden,23/08/2018 09:00:15 PM
PRATT STREET,CAMDEN TOWN,NW1,35/18,90,529062,183694,-0.140483,51.537405,Plotted By Council Officer,"(51.537405, -0.140483)",http://opendatacommunities.org/id/london-borough-council/camden,23/08/2018 09:00:20 PM
HOLLY HILL,HAMPSTEAD TOWN,NW3,70/35,125,526343,185793,-0.178913,51.556883,Plotted By Council Officer,"(51.556883, -0.178913)",http://opendatacommunities.org/id/london-borough-council/camden,23/08/2018 09:00:13 PM
THEOBALD'S ROAD,HOLBORN AND COVENT GARDEN,WC1,35/18,90,530787,181882,-0.116298,51.520724,Plotted By Council Officer,"(51.520724, -0.116298)",http://opendatacommunities.org/id/london-borough-council/camden,23/08/2018 09:00:27 PM
LAMBLE STREET,GOSPEL OAK,NW5,35/18,61,528251,185524,-0.151504,51.554036,Plotted By Council Officer,"(51.554036, -0.151504)",http://opendatacommunities.org/id/london-borough-council/camden,23/08/2018 09:00:16 PM
GREENAWAY GARDENS,FROGNAL AND FITZJOHNS,NW3,35/18,60,525872,185466,-0.18582,51.55405,Plotted By Council Officer,"(51.55405, -0.18582)",http://opendatacommunities.org/id/london-borough-council/camden,23/08/2018 09:00:11 PM
REGENT'S PARK ROAD,CAMDEN TOWN,NW1,35/18,104,528123,183777,-0.153985,51.538365,Plotted By Council Officer,"(51.538365, -0.153985)",http://opendatacommunities.org/id/london-borough-council/camden,23/08/2018 09:00:20 PM
CANNON LANE,HAMPSTEAD TOWN,NW3,70/35,125,526633,186150,-0.174604,51.560027,Plotted By Council Officer,"(51.560027, -0.174604)",http://opendatacommunities.org/id/london-borough-council/camden,23/08/2018 09:00:12 PM
ADELAIDE ROAD,HAVERSTOCK,NW3,35/18,90,527813,184373,-0.158236,51.543791,Plotted By Council Officer,"(51.543791, -0.158236)",http://opendatacommunities.org/id/london-borough-council/camden,23/08/2018 09:00:14 PM
JAMESTOWN ROAD,CAMDEN TOWN,NW1,35/18,90,528701,184010,-0.14557,51.540327,Plotted By Council Officer,"(51.540327, -0.14557)",http://opendatacommunities.org/id/london-borough-council/camden,23/08/2018 09:00:19 PM
LOWER MERTON RISE,SWISS COTTAGE,NW3,35/18,60,527280,184116,-0.166011,51.541602,Plotted By Council Officer,"(51.541602, -0.166011)",http://opendatacommunities.org/id/london-borough-council/camden,23/08/2018 09:00:15 PM
LINCOLN'S INN FIELDS,HOLBORN AND COVENT GARDEN,WC1,70/35,60,530893,181355,-0.114967,51.515964,Plotted By Council Officer,"(51.515964, -0.114967)",http://opendatacommunities.org/id/london-borough-council/camden,23/08/2018 09:00:26 PM
WILDWOOD GROVE,HAMPSTEAD TOWN,NW3,35/18,125,526032,187029,-0.182954,51.568061,Plotted By Council Officer,"(51.568061, -0.182954)",http://opendatacommunities.org/id/london-borough-council/camden,23/08/2018 09:00:14 PM
KENTISH TOWN ROAD,CAMDEN TOWN,NW5,35/18,65,528921,183945,-0.142423,51.539693,Plotted By Council Officer,"(51.539693, -0.142423)",http://opendatacommunities.org/id/london-borough-council/camden,23/08/2018 09:00:18 PM
CHALCOT SQUARE,CAMDEN TOWN,NW1,35/18,60,528058,184083,-0.15481,51.541129,Plotted By Council Officer,"(51.541129, -0.15481)",http://opendatacommunities.org/id/london-borough-council/camden,23/08/2018 09:00:19 PM
HAVERSTOCK HILL,HAVERSTOCK,NW3,35/18,90,528021,184526,-0.155182,51.545119,Plotted By Council Officer,"(51.545119, -0.155182)",http://opendatacommunities.org/id/london-borough-council/camden,23/08/2018 09:00:15 PM
PRINCE OF WALES ROAD,HAVERSTOCK,NW5,35/18,159,528624,184695,-0.146429,51.546501,Plotted By Council Officer,"(51.546501, -0.146429)",http://opendatacommunities.org/id/london-borough-council/camden,23/08/2018 09:00:17 PM
,,,35/18,,530144,184013,-0.124773,51.540024,Plotted By Council Officer,"(51.540024, -0.124773)",http://opendatacommunities.org/id/london-borough-council/camden,23/08/2018 09:00:28 PM
HARLEY ROAD,SWISS COTTAGE,NW3,35/18,60,527043,183993,-0.169471,51.54055,Plotted By Council Officer,"(51.54055, -0.169471)",http://opendatacommunities.org/id/london-borough-council/camden,23/08/2018 09:00:15 PM
FAWLEY ROAD,WEST HAMPSTEAD,NW6,35/18,60,525566,185024,-0.190389,51.550146,Plotted By Council Officer,"(51.550146, -0.190389)",http://opendatacommunities.org/id/london-borough-council/camden,23/08/2018 09:00:08 PM
HIGHGATE WEST HILL,HIGHGATE,N6,35/18,90,528284,187368,-0.150356,51.5706,Plotted By Council Officer,"(51.5706, -0.150356)",http://opendatacommunities.org/id/london-borough-council/camden,23/08/2018 09:00:16 PM
ETON AVENUE,BELSIZE,NW3,70/35,150,526726,184380,-0.1739,51.544099,Plotted By Council Officer,"(51.544099, -0.1739)",http://opendatacommunities.org/id/london-borough-council/camden,23/08/2018 09:00:14 PM
BLACKBURN ROAD,WEST HAMPSTEAD,NW6,35/18,21,525653,184696,-0.189252,51.547178,Plotted By Council Officer,"(51.547178, -0.189252)",http://opendatacommunities.org/id/london-borough-council/camden,23/08/2018 09:00:09 PM
ORNAN ROAD,BELSIZE,NW3,35/18,60,527023,185095,-0.169361,51.550458,Plotted By Council Officer,"(51.550458, -0.169361)",http://opendatacommunities.org/id/london-borough-council/camden,23/08/2018 09:00:12 PM
POND SQUARE,HIGHGATE,N6,70/35,100,528408,187375,-0.148565,51.570635,Plotted By Council Officer,"(51.570635, -0.148565)",http://opendatacommunities.org/id/london-borough-council/camden,23/08/2018 09:00:16 PM
BROXWOOD WAY,SWISS COTTAGE,NW8,35/18,61,527456,183572,-0.163671,51.536673,Plotted By Council Officer,"(51.536673, -0.163671)",http://opendatacommunities.org/id/london-borough-council/camden,23/08/2018 09:00:14 PM
PLATT'S LANE,FROGNAL AND FITZJOHNS,NW3,35/18,90,525502,186305,-0.190855,51.561672,Plotted By Council Officer,"(51.561672, -0.190855)",http://opendatacommunities.org/id/london-borough-council/camden,23/08/2018 09:00:12 PM
ADELAIDE ROAD,HAVERSTOCK,NW3,35/18,90,526934,184195,-0.170969,51.54239,Plotted By Council Officer,"(51.54239, -0.170969)",http://opendatacommunities.org/id/london-borough-council/camden,23/08/2018 09:00:09 PM
CLEVELAND STREET,BLOOMSBURY,W1,35/18,90,529152,181920,-0.139837,51.521442,Plotted By Council Officer,"(51.521442, -0.139837)",http://opendatacommunities.org/id/london-borough-council/camden,23/08/2018 09:00:22 PM
DRURY LANE,HOLBORN AND COVENT GARDEN,WC2,35/18,90,530356,181235,-0.122746,51.515009,Plotted By Council Officer,"(51.515009, -0.122746)",http://opendatacommunities.org/id/london-borough-council/camden,23/08/2018 09:00:24 PM
FLAXMAN TERRACE,KING'S CROSS,WC1,35/18,90,529918,182567,-0.128563,51.527081,Plotted By Council Officer,"(51.527081, -0.128563)",http://opendatacommunities.org/id/london-borough-council/camden,23/08/2018 09:00:24 PM
KINGSGATE ROAD,KILBURN,NW6,35/18,61,525180,184311,-0.196207,51.543823,Plotted By Council Officer,"(51.543823, -0.196207)",http://opendatacommunities.org/id/london-borough-council/camden,23/08/2018 09:00:10 PM
COMPAYNE GARDENS,SWISS COTTAGE,NW6,35/18,60,525846,184459,-0.186555,51.545006,Plotted By Council Officer,"(51.545006, -0.186555)",http://opendatacommunities.org/id/london-borough-council/camden,23/08/2018 09:00:09 PM
BARTHOLOMEW ROAD,CANTELOWES,NW5,35/18,90,529376,184652,-0.135606,51.545943,Plotted By Council Officer,"(51.545943, -0.135606)",http://opendatacommunities.org/id/london-borough-council/camden,23/08/2018 09:00:18 PM
GOLDHURST TERRACE,SWISS COTTAGE,NW6,35/18,60,525770,184054,-0.187795,51.541383,Plotted By Council Officer,"(51.541383, -0.187795)",http://opendatacommunities.org/id/london-borough-council/camden,23/08/2018 09:00:10 PM
RANULF ROAD,FORTUNE GREEN,NW2,35/18,60,525030,185840,-0.197826,51.557598,Plotted By Council Officer,"(51.557598, -0.197826)",http://opendatacommunities.org/id/london-borough-council/camden,23/08/2018 09:00:09 PM
ARKWRIGHT ROAD,FROGNAL AND FITZJOHNS,NW3,35/18,90,526044,185125,-0.183463,51.550947,Plotted By Council Officer,"(51.550947, -0.183463)",http://opendatacommunities.org/id/london-borough-council/camden,23/08/2018 09:00:10 PM
GAISFORD STREET,CANTELOWES,NW5,35/18,90,529326,184840,-0.136258,51.547644,Plotted By Council Officer,"(51.547644, -0.136258)",http://opendatacommunities.org/id/london-borough-council/camden,23/08/2018 09:00:18 PM
BEDFORD AVENUE,BLOOMSBURY,WC1,35/18,60,529913,181598,-0.128993,51.518374,Plotted By Council Officer,"(51.518374, -0.128993)",http://opendatacommunities.org/id/london-borough-council/camden,23/08/2018 09:00:24 PM
LAWN ROAD,GOSPEL OAK,NW3,35/18,60,527552,185224,-0.161689,51.551498,Plotted By Council Officer,"(51.551498, -0.161689)",http://opendatacommunities.org/id/london-borough-council/camden,23/08/2018 09:00:13 PM
ST PANCRAS WAY,ST PANCRAS AND SOMERS TOWN,NW1,35/18,90,529394,184174,-0.135523,51.541643,Plotted By Council Officer,"(51.541643, -0.135523)",http://opendatacommunities.org/id/london-borough-council/camden,23/08/2018 09:00:21 PM
MORNINGTON CRESCENT,REGENT'S PARK,NW1,35/18,90,529095,183204,-0.140187,51.532994,Plotted By Council Officer,"(51.532994, -0.140187)",http://opendatacommunities.org/id/london-borough-council/camden,23/08/2018 09:00:19 PM
GOODS WAY,ST PANCRAS AND SOMERS TOWN,NW1,35/18,90,530010,183353,-0.126948,51.534123,Plotted By Council Officer,"(51.534123, -0.126948)",http://opendatacommunities.org/id/london-borough-council/camden,23/08/2018 09:00:22 PM
LADY SOMERSET ROAD,KENTISH TOWN,NW5,35/18,90,529023,185688,-0.140314,51.555334,Plotted By Council Officer,"(51.555334, -0.140314)",http://opendatacommunities.org/id/london-borough-council/camden,23/08/2018 09:00:16 PM
LAMBOLLE PLACE,BELSIZE,NW3,35/18,60,527347,184679,-0.164841,51.546646,Plotted By Council Officer,"(51.546646, -0.164841)",http://opendatacommunities.org/id/london-borough-council/camden,23/08/2018 09:00:15 PM
LYNDHURST TERRACE,HAMPSTEAD TOWN,NW3,35/18,61,526675,185282,-0.17431,51.552217,Plotted By Council Officer,"(51.552217, -0.17431)",http://opendatacommunities.org/id/london-borough-council/camden,23/08/2018 09:00:11 PM
ARCTIC STREET,GOSPEL OAK,NW5,35/18,60,528522,185143,-0.147736,51.55055,Plotted By Council Officer,"(51.55055, -0.147736)",http://opendatacommunities.org/id/london-borough-council/camden,23/08/2018 09:00:17 PM
LONGFORD STREET,REGENT'S PARK,NW1,35/18,90,528874,182379,-0.143673,51.52563,Plotted By Council Officer,"(51.52563, -0.143673)",http://opendatacommunities.org/id/london-borough-council/camden,23/08/2018 09:00:19 PM
LYMINGTON ROAD,WEST HAMPSTEAD,NW6,70/35,65,525582,184921,-0.190195,51.549216,Plotted By Council Officer,"(51.549216, -0.190195)",http://opendatacommunities.org/id/london-borough-council/camden,23/08/2018 09:00:08 PM
FROGNAL,FROGNAL AND FITZJOHNS,NW3,35/18,60,526268,185093,-0.180245,51.550609,Plotted By Council Officer,"(51.550609, -0.180245)",http://opendatacommunities.org/id/london-borough-council/camden,23/08/2018 09:00:11 PM
OAK HILL PARK,FROGNAL AND FITZJOHNS,NW3,35/18,61,526025,185737,-0.183518,51.556451,Plotted By Council Officer,"(51.556451, -0.183518)",http://opendatacommunities.org/id/london-borough-council/camden,23/08/2018 09:00:12 PM
TAVISTOCK SQUARE,BLOOMSBURY,WC1,35/18,60,529832,182338,-0.129887,51.525043,Plotted By Council Officer,"(51.525043, -0.129887)",http://opendatacommunities.org/id/london-borough-council/camden,23/08/2018 09:00:23 PM
NORTH GOWER STREET,REGENT'S PARK,NW1,35/18,90,529332,182485,-0.137036,51.526478,Plotted By Council Officer,"(51.526478, -0.137036)",http://opendatacommunities.org/id/london-borough-council/camden,23/08/2018 09:00:22 PM
MAPLE STREET,BLOOMSBURY,W1,35/18,90,529181,181959,-0.139404,51.521786,Plotted By Council Officer,"(51.521786, -0.139404)",http://opendatacommunities.org/id/london-borough-council/camden,23/08/2018 09:00:23 PM
PRINCE OF WALES ROAD,HAVERSTOCK,NW5,35/18,159,528284,184627,-0.151355,51.545967,Plotted By Council Officer,"(51.545967, -0.151355)",http://opendatacommunities.org/id/london-borough-council/camden,23/08/2018 09:00:20 PM
GREAT TURNSTILE,HOLBORN AND COVENT GARDEN,WC1,70/35,70,530840,181546,-0.115659,51.517693,Plotted By Council Officer,"(51.517693, -0.115659)",http://opendatacommunities.org/id/london-borough-council/camden,23/08/2018 09:00:26 PM
KINGDON ROAD,WEST HAMPSTEAD,NW6,35/18,61,525369,184917,-0.193267,51.549228,Plotted By Council Officer,"(51.549228, -0.193267)",http://opendatacommunities.org/id/london-borough-council/camden,23/08/2018 09:00:08 PM
LAWN ROAD,GOSPEL OAK,NW3,35/18,60,527538,185393,-0.16183,51.55302,Plotted By Council Officer,"(51.55302, -0.16183)",http://opendatacommunities.org/id/london-borough-council/camden,23/08/2018 09:00:13 PM
HOLMES ROAD,KENTISH TOWN,NW5,35/18,96,528853,185049,-0.142999,51.54963,Plotted By Council Officer,"(51.54963, -0.142999)",http://opendatacommunities.org/id/london-borough-council/camden,23/08/2018 09:00:17 PM
FELLOWS ROAD,BELSIZE,NW3,35/18,60,527452,184437,-0.163416,51.544448,Plotted By Council Officer,"(51.544448, -0.163416)",http://opendatacommunities.org/id/london-borough-council/camden,23/08/2018 09:00:15 PM
BAYHAM STREET,CAMDEN TOWN,NW1,35/18,90,529177,183576,-0.138869,51.536318,Plotted By Council Officer,"(51.536318, -0.138869)",http://opendatacommunities.org/id/london-borough-council/camden,23/08/2018 09:00:20 PM
HAVERSTOCK HILL,HAVERSTOCK,NW3,35/18,90,527509,184944,-0.16241,51.548991,Plotted By Council Officer,"(51.548991, -0.16241)",http://opendatacommunities.org/id/london-borough-council/camden,23/08/2018 09:00:15 PM
KING HENRY'S ROAD,SWISS COTTAGE,NW3,35/18,90,527659,184219,-0.160511,51.542442,Plotted By Council Officer,"(51.542442, -0.160511)",http://opendatacommunities.org/id/london-borough-council/camden,23/08/2018 09:00:12 PM
CROWNDALE ROAD,ST PANCRAS AND SOMERS TOWN,NW1,35/18,90,529514,183491,-0.134044,51.535477,Plotted By Council Officer,"(51.535477, -0.134044)",http://opendatacommunities.org/id/london-borough-council/camden,23/08/2018 09:00:27 PM
PILGRIM'S LANE,HAMPSTEAD TOWN,NW3,35/18,60,526814,185608,-0.172189,51.555115,Plotted By Council Officer,"(51.555115, -0.172189)",http://opendatacommunities.org/id/london-borough-council/camden,23/08/2018 09:00:13 PM
MALDEN ROAD,HAVERSTOCK,NW5,35/18,90,528148,185022,-0.153171,51.549548,Plotted By Council Officer,"(51.549548, -0.153171)",http://opendatacommunities.org/id/london-borough-council/camden,23/08/2018 09:00:17 PM
LITTLE RUSSELL STREET,HOLBORN AND COVENT GARDEN,WC1,35/18,60,530216,181577,-0.124636,51.518115,Plotted By Council Officer,"(51.518115, -0.124636)",http://opendatacommunities.org/id/london-borough-council/camden,23/08/2018 09:00:25 PM
BELSIZE GROVE,BELSIZE,NW3,35/18,61,527358,184857,-0.164618,51.548244,Plotted By Council Officer,"(51.548244, -0.164618)",http://opendatacommunities.org/id/london-borough-council/camden,23/08/2018 09:00:14 PM
FITZROY SQUARE,BLOOMSBURY,W1,70/35,125,529133,182040,-0.140066,51.522525,Plotted By Council Officer,"(51.522525, -0.140066)",http://opendatacommunities.org/id/london-borough-council/camden,23/08/2018 09:00:22 PM
MAITLAND PARK ROAD,HAVERSTOCK,NW3,35/18,90,527980,184942,-0.155622,51.548867,Plotted By Council Officer,"(51.548867, -0.155622)",http://opendatacommunities.org/id/london-borough-council/camden,23/08/2018 09:00:20 PM
LAMBOLLE ROAD,BELSIZE,NW3,35/18,60,527246,184649,-0.166308,51.546399,Plotted By Council Officer,"(51.546399, -0.166308)",http://opendatacommunities.org/id/london-borough-council/camden,23/08/2018 09:00:15 PM
ST PANCRAS WAY,ST PANCRAS AND SOMERS TOWN,NW1,35/18,90,529286,184271,-0.137043,51.542539,Plotted By Council Officer,"(51.542539, -0.137043)",http://opendatacommunities.org/id/london-borough-council/camden,23/08/2018 09:00:21 PM
MARY TERRACE,REGENT'S PARK,NW1,35/18,21,529011,183591,-0.141256,51.536491,Plotted By Council Officer,"(51.536491, -0.141256)",http://opendatacommunities.org/id/london-borough-council/camden,23/08/2018 09:00:26 PM
BEDFORD PLACE,BLOOMSBURY,WC1,35/18,60,530274,181767,-0.12373,51.519809,Plotted By Council Officer,"(51.519809, -0.12373)",http://opendatacommunities.org/id/london-borough-council/camden,23/08/2018 09:00:24 PM
REDINGTON ROAD,FROGNAL AND FITZJOHNS,NW3,35/18,60,525971,185688,-0.184314,51.556023,Plotted By Council Officer,"(51.556023, -0.184314)",http://opendatacommunities.org/id/london-borough-council/camden,23/08/2018 09:00:12 PM
ORIEL PLACE,HAMPSTEAD TOWN,NW3,35/18,125,526408,185699,-0.17801,51.556024,Plotted By Council Officer,"(51.556024, -0.17801)",http://opendatacommunities.org/id/london-borough-council/camden,23/08/2018 09:00:12 PM
WINSCOMBE STREET,HIGHGATE,N19,35/18,60,528869,186564,-0.142214,51.563241,Plotted By Council Officer,"(51.563241, -0.142214)",http://opendatacommunities.org/id/london-borough-council/camden,23/08/2018 09:00:17 PM
ARDWICK ROAD,FORTUNE GREEN,NW2,35/18,45,525117,185848,-0.196569,51.557651,Plotted By Council Officer,"(51.557651, -0.196569)",http://opendatacommunities.org/id/london-borough-council/camden,23/08/2018 09:00:08 PM
COMPAYNE GARDENS,SWISS COTTAGE,NW6,35/18,60,525517,184475,-0.191291,51.545223,Plotted By Council Officer,"(51.545223, -0.191291)",http://opendatacommunities.org/id/london-borough-council/camden,23/08/2018 09:00:09 PM
BLACK PATH,WEST HAMPSTEAD,NW6,35/18,21,525127,184898,-0.196762,51.549111,Plotted By Council Officer,"(51.549111, -0.196762)",http://opendatacommunities.org/id/london-borough-council/camden,23/08/2018 09:00:09 PM
CROSSFIELD ROAD,BELSIZE,NW3,35/18,60,526894,184563,-0.171413,51.545706,Plotted By Council Officer,"(51.545706, -0.171413)",http://opendatacommunities.org/id/london-borough-council/camden,23/08/2018 09:00:14 PM
ALBANY STREET,REGENT'S PARK,NW1,35/18,140,528752,183009,-0.145201,51.53132,Plotted By Council Officer,"(51.53132, -0.145201)",http://opendatacommunities.org/id/london-borough-council/camden,23/08/2018 09:00:19 PM
WEST HEATH ROAD,HAMPSTEAD TOWN,NW3,35/18,90,526110,186305,-0.182089,51.561537,Plotted By Council Officer,"(51.561537, -0.182089)",http://opendatacommunities.org/id/london-borough-council/camden,23/08/2018 09:00:12 PM
KINGSGATE ROAD,KILBURN,NW6,35/18,61,525160,184356,-0.196479,51.544232,Plotted By Council Officer,"(51.544232, -0.196479)",http://opendatacommunities.org/id/london-borough-council/camden,23/08/2018 09:00:10 PM
GREVILLE ROAD,KILBURN,NW6,70/35,50,525592,183497,-0.190559,51.536416,Plotted By Council Officer,"(51.536416, -0.190559)",http://opendatacommunities.org/id/london-borough-council/camden,23/08/2018 09:00:10 PM
GLOUCESTER AVENUE,CAMDEN TOWN,NW1,35/18,104,528111,184140,-0.154025,51.54163,Plotted By Council Officer,"(51.54163, -0.154025)",http://opendatacommunities.org/id/london-borough-council/camden,23/08/2018 09:00:19 PM
GRANNY DRIPPING STEPS (FOOTBRIDGE BETWEEN BROADURST GARDENS AND BLACKBURN ROAD),WEST HAMPSTEAD,NW6,70/35,70,525692,184649,-0.188707,51.546747,Plotted By Council Officer,"(51.546747, -0.188707)",http://opendatacommunities.org/id/london-borough-council/camden,23/08/2018 09:00:09 PM
CALTHORPE STREET,KING'S CROSS,WC1,35/18,90,530863,182327,-0.115038,51.524706,Plotted By Council Officer,"(51.524706, -0.115038)",http://opendatacommunities.org/id/london-borough-council/camden,23/08/2018 09:00:23 PM
FLEET ROAD,GOSPEL OAK,NW3,35/18,65,527500,185462,-0.162352,51.553649,Plotted By Council Officer,"(51.553649, -0.162352)",http://opendatacommunities.org/id/london-borough-council/camden,23/08/2018 09:00:13 PM
HUNTLEY STREET,BLOOMSBURY,WC1,35/18,90,529632,181913,-0.132924,51.521269,Plotted By Council Officer,"(51.521269, -0.132924)",http://opendatacommunities.org/id/london-borough-council/camden,23/08/2018 09:00:23 PM
WEST END LANE,WEST HAMPSTEAD,NW6,35/18,90,525501,185037,-0.191322,51.550277,Plotted By Council Officer,"(51.550277, -0.191322)",http://opendatacommunities.org/id/london-borough-council/camden,23/08/2018 09:00:10 PM
MESSINA AVENUE,KILBURN,NW6,35/18,61,525241,184229,-0.195357,51.543073,Plotted By Council Officer,"(51.543073, -0.195357)",http://opendatacommunities.org/id/london-borough-council/camden,23/08/2018 09:00:10 PM
CHESTER ROAD,HIGHGATE,N19,35/18,90,528728,186651,-0.144215,51.564055,Plotted By Council Officer,"(51.564055, -0.144215)",http://opendatacommunities.org/id/london-borough-council/camden,23/08/2018 09:00:21 PM
HIGH HOLBORN,HOLBORN AND COVENT GARDEN,"EC1, WC1",35/18,90,530409,181509,-0.121881,51.51746,Plotted By Council Officer,"(51.51746, -0.121881)",http://opendatacommunities.org/id/london-borough-council/camden,23/08/2018 09:00:25 PM
PRIORY ROAD,SWISS COTTAGE,NW6,35/18,90,525650,184089,-0.189512,51.541724,Plotted By Council Officer,"(51.541724, -0.189512)",http://opendatacommunities.org/id/london-borough-council/camden,23/08/2018 09:00:10 PM
SARRE ROAD,FORTUNE GREEN,NW2,35/18,60,524672,185339,-0.203165,51.553175,Plotted By Council Officer,"(51.553175, -0.203165)",http://opendatacommunities.org/id/london-borough-council/camden,23/08/2018 09:00:09 PM
HUNTLEY STREET,BLOOMSBURY,WC1,35/18,90,529519,182071,-0.134494,51.522715,Plotted By Council Officer,"(51.522715, -0.134494)",http://opendatacommunities.org/id/london-borough-council/camden,23/08/2018 09:00:23 PM
PRIORY ROAD,SWISS COTTAGE,NW6,35/18,90,525593,183758,-0.190452,51.538762,Plotted By Council Officer,"(51.538762, -0.190452)",http://opendatacommunities.org/id/london-borough-council/camden,23/08/2018 09:00:10 PM
HATTON GARDEN,HOLBORN AND COVENT GARDEN,EC1,35/18,90,531384,181650,-0.107784,51.518501,Plotted By Council Officer,"(51.518501, -0.107784)",http://opendatacommunities.org/id/london-borough-council/camden,23/08/2018 09:00:26 PM
MALET STREET,BLOOMSBURY,WC1,35/18,90,529851,181902,-0.129774,51.52112,Plotted By Council Officer,"(51.52112, -0.129774)",http://opendatacommunities.org/id/london-borough-council/camden,23/08/2018 09:00:23 PM
POND STREET,HAMPSTEAD TOWN,NW3,35/18,90,527091,185428,-0.168261,51.553435,Plotted By Council Officer,"(51.553435, -0.168261)",http://opendatacommunities.org/id/london-borough-council/camden,23/08/2018 09:00:13 PM
BELMONT STREET,HAVERSTOCK,NW1,35/18,21,528288,184418,-0.151373,51.544088,Plotted By Council Officer,"(51.544088, -0.151373)",http://opendatacommunities.org/id/london-borough-council/camden,23/08/2018 09:00:17 PM
DORRINGTON STREET,HOLBORN AND COVENT GARDEN,EC1,35/18,60,531210,181772,-0.110245,51.519638,Plotted By Council Officer,"(51.519638, -0.110245)",http://opendatacommunities.org/id/london-borough-council/camden,23/08/2018 09:00:26 PM
TOTTENHAM COURT ROAD,BLOOMSBURY,W1,70/35,250,529290,182275,-0.137718,51.524601,Plotted By Council Officer,"(51.524601, -0.137718)",http://opendatacommunities.org/id/london-borough-council/camden,23/08/2018 09:00:23 PM
THE GROVE,HIGHGATE,N6,70/35,100,528197,187300,-0.151635,51.570008,Plotted By Council Officer,"(51.570008, -0.151635)",http://opendatacommunities.org/id/london-borough-council/camden,23/08/2018 09:00:16 PM
SWAIN'S LANE,HIGHGATE,N6,35/18,45,528567,186861,-0.14646,51.565979,Plotted By Council Officer,"(51.565979, -0.14646)",http://opendatacommunities.org/id/london-borough-council/camden,23/08/2018 09:00:16 PM
STEPHEN STREET,BLOOMSBURY,W1,35/18,60,529652,181508,-0.132785,51.517625,Plotted By Council Officer,"(51.517625, -0.132785)",http://opendatacommunities.org/id/london-borough-council/camden,23/08/2018 09:00:23 PM
CASTLEHAVEN ROAD,CAMDEN TOWN,NW1,35/18,95,528800,184488,-0.143968,51.5446,Plotted By Council Officer,"(51.5446, -0.143968)",http://opendatacommunities.org/id/london-borough-council/camden,23/08/2018 09:00:12 PM
PRINCETON STREET,HOLBORN AND COVENT GARDEN,WC1,35/18,60,530689,181750,-0.117758,51.519561,Plotted By Council Officer,"(51.519561, -0.117758)",http://opendatacommunities.org/id/london-borough-council/camden,23/08/2018 09:00:26 PM
RHYL STREET,HAVERSTOCK,NW5,35/18,60,528347,184833,-0.150372,51.547804,Plotted By Council Officer,"(51.547804, -0.150372)",http://opendatacommunities.org/id/london-borough-council/camden,23/08/2018 09:00:17 PM
BROADHURST GARDENS,SWISS COTTAGE,NW6,35/18,96,526110,184680,-0.182671,51.546933,Plotted By Council Officer,"(51.546933, -0.182671)",http://opendatacommunities.org/id/london-borough-council/camden,23/08/2018 09:00:09 PM
HATTON GARDEN,HOLBORN AND COVENT GARDEN,EC1,35/18,90,531289,181999,-0.109023,51.52166,Plotted By Council Officer,"(51.52166, -0.109023)",http://opendatacommunities.org/id/london-borough-council/camden,23/08/2018 09:00:26 PM
BUCK STREET,CAMDEN TOWN,NW1,70/35,100,528899,184019,-0.142713,51.540363,Plotted By Council Officer,"(51.540363, -0.142713)",http://opendatacommunities.org/id/london-borough-council/camden,23/08/2018 09:00:17 PM
ELSWORTHY ROAD,SWISS COTTAGE,NW3,35/18,60,527321,184056,-0.165441,51.541053,Plotted By Council Officer,"(51.541053, -0.165441)",http://opendatacommunities.org/id/london-borough-council/camden,23/08/2018 09:00:14 PM
GLENLOCH ROAD,BELSIZE,NW3,35/18,60,527207,184978,-0.166751,51.549365,Plotted By Council Officer,"(51.549365, -0.166751)",http://opendatacommunities.org/id/london-borough-council/camden,23/08/2018 09:00:15 PM
GRAFTON ROAD,GOSPEL OAK,NW5,35/18,90,528309,185313,-0.150744,51.552126,Plotted By Council Officer,"(51.552126, -0.150744)",http://opendatacommunities.org/id/london-borough-council/camden,23/08/2018 09:00:18 PM
MARESFIELD GARDENS,FROGNAL AND FITZJOHNS,NW3,35/18,60,526445,184900,-0.177763,51.548835,Plotted By Council Officer,"(51.548835, -0.177763)",http://opendatacommunities.org/id/london-borough-council/camden,23/08/2018 09:00:11 PM
PRINCE OF WALES ROAD,HAVERSTOCK,NW5,35/18,159,527989,184601,-0.155616,51.5458,Plotted By Council Officer,"(51.5458, -0.155616)",http://opendatacommunities.org/id/london-borough-council/camden,23/08/2018 09:00:20 PM
REDINGTON ROAD,FROGNAL AND FITZJOHNS,NW3,35/18,60,525609,186075,-0.189395,51.559581,Plotted By Council Officer,"(51.559581, -0.189395)",http://opendatacommunities.org/id/london-borough-council/camden,23/08/2018 09:00:12 PM
MIDLAND ROAD,ST PANCRAS AND SOMERS TOWN,NW1,35/18,150,530010,182997,-0.127079,51.530924,Plotted By Council Officer,"(51.530924, -0.127079)",http://opendatacommunities.org/id/london-borough-council/camden,23/08/2018 09:00:22 PM
EVERSHOLT STREET,ST PANCRAS AND SOMERS TOWN,NW1,35/18,140,529702,182685,-0.131632,51.528191,Plotted By Council Officer,"(51.528191, -0.131632)",http://opendatacommunities.org/id/london-borough-council/camden,23/08/2018 09:00:22 PM
WEST STREET,HOLBORN AND COVENT GARDEN,WC1,70/35,100,529990,181002,-0.128103,51.513,Plotted By Council Officer,"(51.513, -0.128103)",http://opendatacommunities.org/id/london-borough-council/camden,23/08/2018 09:00:26 PM
CAMLEY STREET,ST PANCRAS AND SOMERS TOWN,"N1, NW1",35/18,90,529660,184035,-0.13174,51.540333,Plotted By Council Officer,"(51.540333, -0.13174)",http://opendatacommunities.org/id/london-borough-council/camden,23/08/2018 09:00:21 PM
AGAR GROVE,CANTELOWES,NW1,35/18,90,529621,184318,-0.132198,51.542885,Plotted By Council Officer,"(51.542885, -0.132198)",http://opendatacommunities.org/id/london-borough-council/camden,23/08/2018 09:00:27 PM
PROCTER STREET,HOLBORN AND COVENT GARDEN,WC1,35/18,90,530578,181618,-0.119406,51.5184,Plotted By Council Officer,"(51.5184, -0.119406)",http://opendatacommunities.org/id/london-borough-council/camden,23/08/2018 09:00:26 PM
YORKSHIRE GREY YARD,HOLBORN AND COVENT GARDEN,WC1,70/35,100,530613,181632,-0.118897,51.518518,Plotted By Council Officer,"(51.518518, -0.118897)",http://opendatacommunities.org/id/london-borough-council/camden,23/08/2018 09:00:27 PM
LANGLAND GARDENS,FROGNAL AND FITZJOHNS,NW3,35/18,60,525949,185357,-0.184749,51.553053,Plotted By Council Officer,"(51.553053, -0.184749)",http://opendatacommunities.org/id/london-borough-council/camden,23/08/2018 09:00:11 PM
LYNDHURST GARDENS,HAMPSTEAD TOWN,NW3,35/18,60,526830,185323,-0.172061,51.55255,Plotted By Council Officer,"(51.55255, -0.172061)",http://opendatacommunities.org/id/london-borough-council/camden,23/08/2018 09:00:11 PM
ABERDARE GARDENS,SWISS COTTAGE,NW6,35/18,60,525992,184158,-0.184559,51.542268,Plotted By Council Officer,"(51.542268, -0.184559)",http://opendatacommunities.org/id/london-borough-council/camden,23/08/2018 09:00:09 PM
BRUNSWICK SQUARE,KING'S CROSS,WC1,35/18,90,530341,182248,-0.122587,51.524117,Plotted By Council Officer,"(51.524117, -0.122587)",http://opendatacommunities.org/id/london-borough-council/camden,23/08/2018 09:00:23 PM
GRANGEWAY,KILBURN,NW6,35/18,54,525063,184168,-0.197944,51.542564,Plotted By Council Officer,"(51.542564, -0.197944)",http://opendatacommunities.org/id/london-borough-council/camden,23/08/2018 09:00:10 PM
HOLLY LODGE GARDENS,HIGHGATE,N6,35/18,90,528149,187005,-0.152435,51.567368,Plotted By Council Officer,"(51.567368, -0.152435)",http://opendatacommunities.org/id/london-borough-council/camden,23/08/2018 09:00:21 PM
CHENIES STREET,BLOOMSBURY,WC1,35/18,60,529718,181926,-0.131681,51.521366,Plotted By Council Officer,"(51.521366, -0.131681)",http://opendatacommunities.org/id/london-borough-council/camden,23/08/2018 09:00:24 PM
CLORANE GARDENS,FROGNAL AND FITZJOHNS,NW3,35/18,60,525246,186017,-0.194649,51.559141,Plotted By Council Officer,"(51.559141, -0.194649)",http://opendatacommunities.org/id/london-borough-council/camden,23/08/2018 09:00:10 PM
GRANGEWAY,KILBURN,NW6,35/18,54,525043,184208,-0.198218,51.542928,Plotted By Council Officer,"(51.542928, -0.198218)",http://opendatacommunities.org/id/london-borough-council/camden,23/08/2018 09:00:10 PM
CHARRINGTON STREET,ST PANCRAS AND SOMERS TOWN,NW1,35/18,60,529636,183285,-0.132362,51.533598,Plotted By Council Officer,"(51.533598, -0.132362)",http://opendatacommunities.org/id/london-borough-council/camden,23/08/2018 09:00:27 PM
ROSSLYN HILL,HAMPSTEAD TOWN,NW3,35/18,90,526768,185569,-0.172866,51.554775,Plotted By Council Officer,"(51.554775, -0.172866)",http://opendatacommunities.org/id/london-borough-council/camden,23/08/2018 09:00:12 PM
BAYHAM STREET,CAMDEN TOWN,NW1,35/18,90,528965,183910,-0.141802,51.539368,Plotted By Council Officer,"(51.539368, -0.141802)",http://opendatacommunities.org/id/london-borough-council/camden,23/08/2018 09:00:20 PM
RAYDON STREET,HIGHGATE,N19,35/18,90,528773,186664,-0.143561,51.564162,Plotted By Council Officer,"(51.564162, -0.143561)",http://opendatacommunities.org/id/london-borough-council/camden,23/08/2018 09:00:21 PM
ENGLAND'S LANE,BELSIZE,NW3,35/18,90,527554,184631,-0.161875,51.546168,Plotted By Council Officer,"(51.546168, -0.161875)",http://opendatacommunities.org/id/london-borough-council/camden,23/08/2018 09:00:15 PM
WINDMILL HILL,HAMPSTEAD TOWN,NW3,35/18,125,526187,186087,-0.181057,51.55956,Plotted By Council Officer,"(51.55956, -0.181057)",http://opendatacommunities.org/id/london-borough-council/camden,23/08/2018 09:00:12 PM
FOOTPATH BETWEEN WINDMILL HILL AND ADMIRAL'S WALK,HAMPSTEAD TOWN,D6,35/18,60,526242,186050,-0.180277,51.559215,Plotted By Council Officer,"(51.559215, -0.180277)",http://opendatacommunities.org/id/london-borough-council/camden,23/08/2018 09:00:11 PM
NASH STREET,REGENT'S PARK,NW1,35/18,60,528858,182711,-0.143783,51.528617,Plotted By Council Officer,"(51.528617, -0.143783)",http://opendatacommunities.org/id/london-borough-council/camden,23/08/2018 09:00:26 PM
STRATFORD VILLAS,CANTELOWES,NW1,35/18,90,529508,184348,-0.133816,51.54318,Plotted By Council Officer,"(51.54318, -0.133816)",http://opendatacommunities.org/id/london-borough-council/camden,23/08/2018 09:00:21 PM
TOTTENHAM COURT ROAD,BLOOMSBURY,W1,70/35,150,529420,182021,-0.135939,51.522288,Plotted By Council Officer,"(51.522288, -0.135939)",http://opendatacommunities.org/id/london-borough-council/camden,23/08/2018 09:00:23 PM
EVERSHOLT STREET,ST PANCRAS AND SOMERS TOWN,NW1,35/18,140,529560,182879,-0.133607,51.529967,Plotted By Council Officer,"(51.529967, -0.133607)",http://opendatacommunities.org/id/london-borough-council/camden,23/08/2018 09:00:22 PM
KILBURN PRIORY,KILBURN,NW6,35/18,61,525647,183430,-0.189791,51.535802,Plotted By Council Officer,"(51.535802, -0.189791)",http://opendatacommunities.org/id/london-borough-council/camden,23/08/2018 09:00:27 PM
PENRYN STREET,ST PANCRAS AND SOMERS TOWN,NW1,35/18,60,529690,183305,-0.131577,51.533765,Plotted By Council Officer,"(51.533765, -0.131577)",http://opendatacommunities.org/id/london-borough-council/camden,23/08/2018 09:00:27 PM
GRAFTON CRESCENT,KENTISH TOWN,NW1,35/18,60,528764,184665,-0.144423,51.546199,Plotted By Council Officer,"(51.546199, -0.144423)",http://opendatacommunities.org/id/london-borough-council/camden,23/08/2018 09:00:17 PM
SANDLAND STREET,HOLBORN AND COVENT GARDEN,WC1,35/18,60,530884,181700,-0.114968,51.519066,Plotted By Council Officer,"(51.519066, -0.114968)",http://opendatacommunities.org/id/london-borough-council/camden,23/08/2018 09:00:26 PM
KIDDERPORE GARDENS,FROGNAL AND FITZJOHNS,NW3,35/18,60,525472,185788,-0.191472,51.557033,Plotted By Council Officer,"(51.557033, -0.191472)",http://opendatacommunities.org/id/london-borough-council/camden,23/08/2018 09:00:11 PM
TOTTENHAM COURT ROAD,BLOOMSBURY,W1,70/35,250,529610,181716,-0.133314,51.519504,Plotted By Council Officer,"(51.519504, -0.133314)",http://opendatacommunities.org/id/london-borough-council/camden,23/08/2018 09:00:23 PM
ALBERT STREET,REGENT'S PARK,NW1,35/18,90,528866,183573,-0.143352,51.536362,Plotted By Council Officer,"(51.536362, -0.143352)",http://opendatacommunities.org/id/london-borough-council/camden,23/08/2018 09:00:19 PM
YORK WAY,ST PANCRAS AND SOMERS TOWN,N1,35/18,140,530260,183838,-0.123166,51.538424,Plotted By Council Officer,"(51.538424, -0.123166)",http://opendatacommunities.org/id/london-borough-council/camden,23/08/2018 09:00:21 PM
CAMDEN STREET,CAMDEN TOWN,NW1,35/18,140,529078,184084,-0.14011,51.540906,Plotted By Council Officer,"(51.540906, -0.14011)",http://opendatacommunities.org/id/london-borough-council/camden,23/08/2018 09:00:20 PM
LANGTRY ROAD,KILBURN,NW6,35/18,60,525654,183663,-0.189607,51.537895,Plotted By Council Officer,"(51.537895, -0.189607)",http://opendatacommunities.org/id/london-borough-council/camden,23/08/2018 09:00:10 PM
NUTLEY TERRACE,FROGNAL AND FITZJOHNS,NW3,35/18,61,526623,184985,-0.175167,51.549559,Plotted By Council Officer,"(51.549559, -0.175167)",http://opendatacommunities.org/id/london-borough-council/camden,23/08/2018 09:00:12 PM
CRANLEIGH STREET,ST PANCRAS AND SOMERS TOWN,NW1,35/18,60,529414,183191,-0.135596,51.532804,Plotted By Council Officer,"(51.532804, -0.135596)",http://opendatacommunities.org/id/london-borough-council/camden,23/08/2018 09:00:27 PM
ST CUTHBERT'S ROAD,FORTUNE GREEN,NW6,35/18,60,524548,184849,-0.205126,51.548798,Plotted By Council Officer,"(51.548798, -0.205126)",http://opendatacommunities.org/id/london-borough-council/camden,23/08/2018 09:00:15 PM
RUDALL CRESCENT,HAMPSTEAD TOWN,NW3,35/18,60,526707,185776,-0.173671,51.556649,Plotted By Council Officer,"(51.556649, -0.173671)",http://opendatacommunities.org/id/london-borough-council/camden,23/08/2018 09:00:13 PM
CROWNDALE ROAD,ST PANCRAS AND SOMERS TOWN,NW1,35/18,90,529275,183393,-0.137524,51.534651,Plotted By Council Officer,"(51.534651, -0.137524)",http://opendatacommunities.org/id/london-borough-council/camden,23/08/2018 09:00:22 PM
LYMINGTON ROAD,WEST HAMPSTEAD,NW6,70/35,65,525801,184969,-0.187021,51.549599,Plotted By Council Officer,"(51.549599, -0.187021)",http://opendatacommunities.org/id/london-borough-council/camden,23/08/2018 09:00:27 PM
WILD COURT,HOLBORN AND COVENT GARDEN,WC1,35/18,21,530561,181278,-0.119777,51.515349,Plotted By Council Officer,"(51.515349, -0.119777)",http://opendatacommunities.org/id/london-borough-council/camden,23/08/2018 09:00:26 PM
FITZJOHN'S AVENUE,FROGNAL AND FITZJOHNS,NW3,35/18,140,526459,185502,-0.177345,51.554242,Plotted By Council Officer,"(51.554242, -0.177345)",http://opendatacommunities.org/id/london-borough-council/camden,23/08/2018 09:00:12 PM
HIGH HOLBORN,HOLBORN AND COVENT GARDEN,"EC1, WC1",35/18,90,530615,181536,-0.118904,51.517655,Plotted By Council Officer,"(51.517655, -0.118904)",http://opendatacommunities.org/id/london-borough-council/camden,23/08/2018 09:00:25 PM
ARLINGTON ROAD,CAMDEN TOWN,NW1,35/18,104,529031,183448,-0.14102,51.535201,Plotted By Council Officer,"(51.535201, -0.14102)",http://opendatacommunities.org/id/london-borough-council/camden,23/08/2018 09:00:19 PM
BEDFORD PLACE,BLOOMSBURY,WC1,35/18,60,530185,181865,-0.124976,51.520711,Plotted By Council Officer,"(51.520711, -0.124976)",http://opendatacommunities.org/id/london-borough-council/camden,23/08/2018 09:00:24 PM
FERDINAND STREET,HAVERSTOCK,NW1,35/18,90,528448,184405,-0.149072,51.543935,Plotted By Council Officer,"(51.543935, -0.149072)",http://opendatacommunities.org/id/london-borough-council/camden,23/08/2018 09:00:20 PM
CHALTON STREET,ST PANCRAS AND SOMERS TOWN,NW1,35/18,60,529749,182922,-0.130868,51.53031,Plotted By Council Officer,"(51.53031, -0.130868)",http://opendatacommunities.org/id/london-borough-council/camden,23/08/2018 09:00:27 PM
LEIGHTON GROVE,KENTISH TOWN,NW5,35/18,60,529475,185321,-0.133933,51.551932,Plotted By Council Officer,"(51.551932, -0.133933)",http://opendatacommunities.org/id/london-borough-council/camden,23/08/2018 09:00:18 PM
SHORTS GARDENS,HOLBORN AND COVENT GARDEN,WC2,70/35,100,530085,181113,-0.126694,51.513975,Plotted By Council Officer,"(51.513975, -0.126694)",http://opendatacommunities.org/id/london-borough-council/camden,23/08/2018 09:00:25 PM
BROOKE STREET,HOLBORN AND COVENT GARDEN,EC1,35/18,60,531185,181693,-0.110635,51.518934,Plotted By Council Officer,"(51.518934, -0.110635)",http://opendatacommunities.org/id/london-borough-council/camden,23/08/2018 09:00:26 PM
SHIRLOCK ROAD,GOSPEL OAK,NW3,35/18,60,527843,185656,-0.157337,51.555314,Plotted By Council Officer,"(51.555314, -0.157337)",http://opendatacommunities.org/id/london-borough-council/camden,23/08/2018 09:00:16 PM
TEMPLEWOOD AVENUE,FROGNAL AND FITZJOHNS,NW3,35/18,60,525795,186159,-0.186683,51.560295,Plotted By Council Officer,"(51.560295, -0.186683)",http://opendatacommunities.org/id/london-borough-council/camden,23/08/2018 09:00:12 PM
BELSIZE LANE,FROGNAL AND FITZJOHNS,NW3,35/18,60,526818,184880,-0.172394,51.548572,Plotted By Council Officer,"(51.548572, -0.172394)",http://opendatacommunities.org/id/london-borough-council/camden,23/08/2018 09:00:14 PM
LANGBOURNE AVENUE,HIGHGATE,N6,35/18,90,528277,186574,-0.150746,51.563466,Plotted By Council Officer,"(51.563466, -0.150746)",http://opendatacommunities.org/id/london-borough-council/camden,23/08/2018 09:00:21 PM
UPPER PARK ROAD,GOSPEL OAK,NW3,35/18,90,527663,185060,-0.160148,51.549999,Plotted By Council Officer,"(51.549999, -0.160148)",http://opendatacommunities.org/id/london-borough-council/camden,23/08/2018 09:00:13 PM
BEDFORD WAY,BLOOMSBURY,WC1,35/18,90,529913,182224,-0.128762,51.523999,Plotted By Council Officer,"(51.523999, -0.128762)",http://opendatacommunities.org/id/london-borough-council/camden,23/08/2018 09:00:22 PM
TORRINGTON PLACE,BLOOMSBURY,WC1,35/18,104,529585,181997,-0.133571,51.522035,Plotted By Council Officer,"(51.522035, -0.133571)",http://opendatacommunities.org/id/london-borough-council/camden,23/08/2018 09:00:23 PM
CHALCOT SQUARE,CAMDEN TOWN,NW1,35/18,60,527999,184085,-0.15566,51.541161,Plotted By Council Officer,"(51.541161, -0.15566)",http://opendatacommunities.org/id/london-borough-council/camden,23/08/2018 09:00:19 PM
LYME STREET,CAMDEN TOWN,NW1,35/18,60,529263,183981,-0.137481,51.539938,Plotted By Council Officer,"(51.539938, -0.137481)",http://opendatacommunities.org/id/london-borough-council/camden,23/08/2018 09:00:20 PM
WAKEFIELD STREET,KING'S CROSS,WC1,35/18,90,530348,182427,-0.12242,51.525724,Plotted By Council Officer,"(51.525724, -0.12242)",http://opendatacommunities.org/id/london-borough-council/camden,23/08/2018 09:00:24 PM
FROGNAL,FROGNAL AND FITZJOHNS,NW3,35/18,60,526248,185199,-0.180496,51.551566,Plotted By Council Officer,"(51.551566, -0.180496)",http://opendatacommunities.org/id/london-borough-council/camden,23/08/2018 09:00:11 PM
BOUNDARY ROAD,SWISS COTTAGE,NW8,35/18,90,526482,183884,-0.177595,51.539696,Plotted By Council Officer,"(51.539696, -0.177595)",http://opendatacommunities.org/id/london-borough-council/camden,23/08/2018 09:00:09 PM
IVOR STREET,CAMDEN TOWN,NW1,35/18,60,529053,184246,-0.140411,51.542368,Plotted By Council Officer,"(51.542368, -0.140411)",http://opendatacommunities.org/id/london-borough-council/camden,23/08/2018 09:00:18 PM
NETHERHALL GARDENS,FROGNAL AND FITZJOHNS,NW3,35/18,60,526360,185186,-0.178886,51.551424,Plotted By Council Officer,"(51.551424, -0.178886)",http://opendatacommunities.org/id/london-borough-council/camden,23/08/2018 09:00:12 PM
RADLETT PLACE,SWISS COTTAGE,NW8,35/18,60,527191,183792,-0.16741,51.53871,Plotted By Council Officer,"(51.53871, -0.16741)",http://opendatacommunities.org/id/london-borough-council/camden,23/08/2018 09:00:15 PM
BILLY FURY WAY,WEST HAMPSTEAD,NW6,35/18,29,525681,184795,-0.188813,51.548062,Plotted By Council Officer,"(51.548062, -0.188813)",http://opendatacommunities.org/id/london-borough-council/camden,23/08/2018 09:00:10 PM
MAKEPEACE AVENUE,HIGHGATE,N6,35/18,90,528326,186695,-0.149995,51.564542,Plotted By Council Officer,"(51.564542, -0.149995)",http://opendatacommunities.org/id/london-borough-council/camden,23/08/2018 09:00:21 PM
ENDSLEIGH STREET,BLOOMSBURY,WC1,35/18,90,529789,182415,-0.130478,51.525744,Plotted By Council Officer,"(51.525744, -0.130478)",http://opendatacommunities.org/id/london-borough-council/camden,23/08/2018 09:00:10 PM
CAROL STREET,CAMDEN TOWN,NW1,35/18,61,529129,183901,-0.139442,51.53925,Plotted By Council Officer,"(51.53925, -0.139442)",http://opendatacommunities.org/id/london-borough-council/camden,23/08/2018 09:00:20 PM
MANSFIELD ROAD,GOSPEL OAK,NW3,35/18,90,528119,185545,-0.153399,51.554254,Plotted By Council Officer,"(51.554254, -0.153399)",http://opendatacommunities.org/id/london-borough-council/camden,23/08/2018 09:00:18 PM
HIGHGATE ROAD,HIGHGATE,NW5,35/18,90,528344,186185,-0.149922,51.559955,Plotted By Council Officer,"(51.559955, -0.149922)",http://opendatacommunities.org/id/london-borough-council/camden,23/08/2018 09:00:16 PM
LOWER TERRACE,HAMPSTEAD TOWN,NW3,35/18,125,526180,186076,-0.181162,51.559463,Plotted By Council Officer,"(51.559463, -0.181162)",http://opendatacommunities.org/id/london-borough-council/camden,23/08/2018 09:00:11 PM
CROFTDOWN ROAD,HIGHGATE,NW5,35/18,90,528725,186318,-0.14438,51.561063,Plotted By Council Officer,"(51.561063, -0.14438)",http://opendatacommunities.org/id/london-borough-council/camden,23/08/2018 09:00:16 PM
BELSIZE LANE,FROGNAL AND FITZJOHNS,NW3,35/18,60,527090,185324,-0.168313,51.552501,Plotted By Council Officer,"(51.552501, -0.168313)",http://opendatacommunities.org/id/london-borough-council/camden,23/08/2018 09:00:14 PM
FORTESS ROAD,KENTISH TOWN,NW5,35/18,90,529095,185720,-0.139265,51.555605,Plotted By Council Officer,"(51.555605, -0.139265)",http://opendatacommunities.org/id/london-borough-council/camden,23/08/2018 09:00:16 PM
PRIMROSE HILL ROAD,REGENT'S PARK,NW3,35/18,90,527556,184189,-0.162006,51.542196,Plotted By Council Officer,"(51.542196, -0.162006)",http://opendatacommunities.org/id/london-borough-council/camden,23/08/2018 09:00:12 PM
MURRAY MEWS,CANTELOWES,NW1,35/18,60,529729,184510,-0.130571,51.544586,Plotted By Council Officer,"(51.544586, -0.130571)",http://opendatacommunities.org/id/london-borough-council/camden,23/08/2018 09:00:20 PM
SAVERNAKE ROAD,GOSPEL OAK,NW3,35/18,60,527970,185707,-0.155488,51.555744,Plotted By Council Officer,"(51.555744, -0.155488)",http://opendatacommunities.org/id/london-borough-council/camden,23/08/2018 09:00:16 PM
BISHAM GARDENS,HIGHGATE,N6,35/18,45,528490,187312,-0.147405,51.57005,Plotted By Council Officer,"(51.57005, -0.147405)",http://opendatacommunities.org/id/london-borough-council/camden,23/08/2018 09:00:15 PM
ALDENHAM STREET,ST PANCRAS AND SOMERS TOWN,NW1,35/18,60,529506,183072,-0.134314,51.531714,Plotted By Council Officer,"(51.531714, -0.134314)",http://opendatacommunities.org/id/london-borough-council/camden,23/08/2018 09:00:21 PM
YORK WAY,ST PANCRAS AND SOMERS TOWN,N1,35/18,140,530301,183776,-0.122598,51.537858,Plotted By Council Officer,"(51.537858, -0.122598)",http://opendatacommunities.org/id/london-borough-council/camden,23/08/2018 09:00:21 PM
MILL LANE,FORTUNE GREEN,NW6,35/18,65,525199,185219,-0.19561,51.55198,Plotted By Council Officer,"(51.55198, -0.19561)",http://opendatacommunities.org/id/london-borough-council/camden,23/08/2018 09:00:09 PM
PLENDER STREET,ST PANCRAS AND SOMERS TOWN,NW1,35/18,90,529423,183699,-0.135279,51.537367,Plotted By Council Officer,"(51.537367, -0.135279)",http://opendatacommunities.org/id/london-borough-council/camden,23/08/2018 09:00:20 PM
LEVERTON STREET,KENTISH TOWN,NW5,35/18,60,529096,185452,-0.139349,51.553196,Plotted By Council Officer,"(51.553196, -0.139349)",http://opendatacommunities.org/id/london-borough-council/camden,23/08/2018 09:00:18 PM
BLAKENEY CLOSE,ST PANCRAS AND SOMERS TOWN,NW1,35/18,60,529547,184023,-0.133373,51.540251,Plotted By Council Officer,"(51.540251, -0.133373)",http://opendatacommunities.org/id/london-borough-council/camden,23/08/2018 09:00:20 PM
FORTESS ROAD,KENTISH TOWN,NW5,35/18,90,529031,185599,-0.140232,51.554532,Plotted By Council Officer,"(51.554532, -0.140232)",http://opendatacommunities.org/id/london-borough-council/camden,23/08/2018 09:00:18 PM
CHRISTCHURCH HILL,HAMPSTEAD TOWN,NW3,70/35,100,526727,185966,-0.173315,51.558352,Plotted By Council Officer,"(51.558352, -0.173315)",http://opendatacommunities.org/id/london-borough-council/camden,23/08/2018 09:00:12 PM
WHIDBORNE STREET,KING'S CROSS,WC1,35/18,60,530264,182739,-0.123515,51.528547,Plotted By Council Officer,"(51.528547, -0.123515)",http://opendatacommunities.org/id/london-borough-council/camden,23/08/2018 09:00:24 PM
CROFTDOWN ROAD,HIGHGATE,NW5,35/18,90,528763,186363,-0.143816,51.561459,Plotted By Council Officer,"(51.561459, -0.143816)",http://opendatacommunities.org/id/london-borough-council/camden,23/08/2018 09:00:21 PM
KINGSGATE PLACE,KILBURN,NW6,35/18,61,525150,184049,-0.196733,51.541475,Plotted By Council Officer,"(51.541475, -0.196733)",http://opendatacommunities.org/id/london-borough-council/camden,23/08/2018 09:00:27 PM
WOODSOME ROAD,HIGHGATE,NW5,35/18,45,528462,186065,-0.148264,51.55885,Plotted By Council Officer,"(51.55885, -0.148264)",http://opendatacommunities.org/id/london-borough-council/camden,23/08/2018 09:00:17 PM
TEMPLEWOOD AVENUE,FROGNAL AND FITZJOHNS,NW3,35/18,60,525813,186176,-0.186417,51.560444,Plotted By Council Officer,"(51.560444, -0.186417)",http://opendatacommunities.org/id/london-borough-council/camden,23/08/2018 09:00:12 PM
BLOOMSBURY WAY,HOLBORN AND COVENT GARDEN,WC1,35/18,90,530203,181483,-0.124858,51.517273,Plotted By Council Officer,"(51.517273, -0.124858)",http://opendatacommunities.org/id/london-borough-council/camden,23/08/2018 09:00:24 PM
BAYNES STREET,CAMDEN TOWN,NW1,35/18,90,529367,184155,-0.135919,51.541478,Plotted By Council Officer,"(51.541478, -0.135919)",http://opendatacommunities.org/id/london-borough-council/camden,23/08/2018 09:00:20 PM
KINGSGATE ROAD,KILBURN,NW6,35/18,61,525238,184157,-0.195426,51.542427,Plotted By Council Officer,"(51.542427, -0.195426)",http://opendatacommunities.org/id/london-borough-council/camden,23/08/2018 09:00:27 PM
HIGHGATE HIGH STREET,HIGHGATE,N6,35/18,90,528633,187330,-0.145337,51.570179,Plotted By Council Officer,"(51.570179, -0.145337)",http://opendatacommunities.org/id/london-borough-council/camden,23/08/2018 09:00:16 PM
WEECH ROAD,FORTUNE GREEN,NW6,35/18,60,525152,185668,-0.196128,51.556025,Plotted By Council Officer,"(51.556025, -0.196128)",http://opendatacommunities.org/id/london-borough-council/camden,23/08/2018 09:00:09 PM
RYLAND ROAD,KENTISH TOWN,NW5,35/18,60,528654,184810,-0.145955,51.547527,Plotted By Council Officer,"(51.547527, -0.145955)",http://opendatacommunities.org/id/london-borough-council/camden,23/08/2018 09:00:17 PM
BELSIZE PARK,FROGNAL AND FITZJOHNS,NW3,35/18,90,526714,184594,-0.173996,51.546025,Plotted By Council Officer,"(51.546025, -0.173996)",http://opendatacommunities.org/id/london-borough-council/camden,23/08/2018 09:00:14 PM
PRIMROSE HILL ROAD,REGENT'S PARK,NW3,35/18,90,527510,184439,-0.162579,51.544453,Plotted By Council Officer,"(51.544453, -0.162579)",http://opendatacommunities.org/id/london-borough-council/camden,23/08/2018 09:00:15 PM
SUMATRA ROAD,WEST HAMPSTEAD,NW6,35/18,61,525131,184925,-0.196695,51.549352,Plotted By Council Officer,"(51.549352, -0.196695)",http://opendatacommunities.org/id/london-borough-council/camden,23/08/2018 09:00:09 PM
ROYAL COLLEGE STREET,ST PANCRAS AND SOMERS TOWN,NW1,35/18,90,528977,184538,-0.141399,51.545009,Plotted By Council Officer,"(51.545009, -0.141399)",http://opendatacommunities.org/id/london-borough-council/camden,23/08/2018 09:00:21 PM
FORDWYCH ROAD,FORTUNE GREEN,NW2,70/35,50,524136,185553,-0.210817,51.555216,Plotted By Council Officer,"(51.555216, -0.210817)",http://opendatacommunities.org/id/london-borough-council/camden,23/08/2018 09:00:08 PM
WELLESLEY ROAD,GOSPEL OAK,NW5,35/18,61,528098,185312,-0.153786,51.552165,Plotted By Council Officer,"(51.552165, -0.153786)",http://opendatacommunities.org/id/london-borough-council/camden,23/08/2018 09:00:18 PM
LANCASTER GROVE,BELSIZE,NW3,35/18,60,526949,184626,-0.170597,51.54626,Plotted By Council Officer,"(51.54626, -0.170597)",http://opendatacommunities.org/id/london-borough-council/camden,23/08/2018 09:00:15 PM
BARTHOLOMEW ROAD,CANTELOWES,NW5,35/18,90,529417,185004,-0.134886,51.549097,Plotted By Council Officer,"(51.549097, -0.134886)",http://opendatacommunities.org/id/london-borough-council/camden,23/08/2018 09:00:18 PM
HAVERSTOCK HILL,HAVERSTOCK,NW3,35/18,90,527963,184587,-0.155996,51.54568,Plotted By Council Officer,"(51.54568, -0.155996)",http://opendatacommunities.org/id/london-borough-council/camden,23/08/2018 09:00:15 PM
JEFFREY'S STREET,CAMDEN TOWN,NW1,35/18,90,529123,184372,-0.139356,51.543484,Plotted By Council Officer,"(51.543484, -0.139356)",http://opendatacommunities.org/id/london-borough-council/camden,23/08/2018 09:00:18 PM
FOOTPATH NORTH OF FORTUNE GREEN THROUGH CEMETERY TO 50 METRES NORTH OF CEMETRY ONLY,WEST HAMPSTEAD,NW6,35/18,21,524962,185584,-0.198897,51.555312,Plotted By Council Officer,"(51.555312, -0.198897)",http://opendatacommunities.org/id/london-borough-council/camden,23/08/2018 09:00:09 PM
ADELAIDE ROAD,HAVERSTOCK,NW3,35/18,90,526898,184153,-0.171503,51.54202,Plotted By Council Officer,"(51.54202, -0.171503)",http://opendatacommunities.org/id/london-borough-council/camden,23/08/2018 09:00:14 PM
RED LION STREET,HOLBORN AND COVENT GARDEN,WC1,35/18,60,530733,181741,-0.117128,51.51947,Plotted By Council Officer,"(51.51947, -0.117128)",http://opendatacommunities.org/id/london-borough-council/camden,23/08/2018 09:00:26 PM
AGAR GROVE,CANTELOWES,NW1,35/18,90,529929,184381,-0.127736,51.54338,Plotted By Council Officer,"(51.54338, -0.127736)",http://opendatacommunities.org/id/london-borough-council/camden,23/08/2018 09:00:20 PM
NORTHINGTON STREET,HOLBORN AND COVENT GARDEN,WC1,35/18,60,530933,182063,-0.114127,51.522317,Plotted By Council Officer,"(51.522317, -0.114127)",http://opendatacommunities.org/id/london-borough-council/camden,23/08/2018 09:00:26 PM
HILGROVE ROAD,SWISS COTTAGE,NW6,35/18,50,526508,184139,-0.177129,51.541982,Plotted By Council Officer,"(51.541982, -0.177129)",http://opendatacommunities.org/id/london-borough-council/camden,23/08/2018 09:00:10 PM
SWAIN'S LANE,HIGHGATE,N6,35/18,45,528546,187069,-0.146687,51.567853,Plotted By Council Officer,"(51.567853, -0.146687)",http://opendatacommunities.org/id/london-borough-council/camden,23/08/2018 09:00:17 PM
GOLDHURST TERRACE,SWISS COTTAGE,NW6,35/18,60,526270,184402,-0.180464,51.544399,Plotted By Council Officer,"(51.544399, -0.180464)",http://opendatacommunities.org/id/london-borough-council/camden,23/08/2018 09:00:10 PM
NORTH END,HAMPSTEAD TOWN,NW3,35/18,125,526076,186958,-0.182345,51.567413,Plotted By Council Officer,"(51.567413, -0.182345)",http://opendatacommunities.org/id/london-borough-council/camden,23/08/2018 09:00:13 PM
CHARLOTTE STREET,BLOOMSBURY,W1,35/18,90,529423,181742,-0.135998,51.51978,Plotted By Council Officer,"(51.51978, -0.135998)",http://opendatacommunities.org/id/london-borough-council/camden,23/08/2018 09:00:22 PM
GOODS WAY,ST PANCRAS AND SOMERS TOWN,NW1,35/18,90,530038,183334,-0.126552,51.533946,Plotted By Council Officer,"(51.533946, -0.126552)",http://opendatacommunities.org/id/london-borough-council/camden,23/08/2018 09:00:22 PM
SOUTHAMPTON ROW,HOLBORN AND COVENT GARDEN,WC1,35/18,140,530425,181707,-0.121577,51.519235,Plotted By Council Officer,"(51.519235, -0.121577)",http://opendatacommunities.org/id/london-borough-council/camden,23/08/2018 09:00:25 PM
CALTHORPE STREET,KING'S CROSS,WC1,35/18,90,530977,182480,-0.113339,51.526055,Plotted By Council Officer,"(51.526055, -0.113339)",http://opendatacommunities.org/id/london-borough-council/camden,23/08/2018 09:00:23 PM
LEIGHTON GROVE,KENTISH TOWN,NW5,35/18,60,529370,185205,-0.13549,51.550914,Plotted By Council Officer,"(51.550914, -0.13549)",http://opendatacommunities.org/id/london-borough-council/camden,23/08/2018 09:00:18 PM
IVERSON ROAD,WEST HAMPSTEAD,NW6,35/18,90,524808,184559,-0.201481,51.546135,Plotted By Council Officer,"(51.546135, -0.201481)",http://opendatacommunities.org/id/london-borough-council/camden,23/08/2018 09:00:08 PM
AUGUSTUS STREET,REGENT'S PARK,NW1,35/18,60,528952,183089,-0.14229,51.531993,Plotted By Council Officer,"(51.531993, -0.14229)",http://opendatacommunities.org/id/london-borough-council/camden,23/08/2018 09:00:19 PM
COMPAYNE GARDENS,SWISS COTTAGE,NW6,35/18,60,525638,184472,-0.189549,51.545169,Plotted By Council Officer,"(51.545169, -0.189549)",http://opendatacommunities.org/id/london-borough-council/camden,23/08/2018 09:00:09 PM
OVAL ROAD,CAMDEN TOWN,NW1,35/18,90,528646,183645,-0.146496,51.53706,Plotted By Council Officer,"(51.53706, -0.146496)",http://opendatacommunities.org/id/london-borough-council/camden,23/08/2018 09:00:19 PM
CARDINGTON STREET,REGENT'S PARK,NW1,35/18,90,529275,182805,-0.13774,51.529367,Plotted By Council Officer,"(51.529367, -0.13774)",http://opendatacommunities.org/id/london-borough-council/camden,23/08/2018 09:00:21 PM
BLOOMSBURY STREET,BLOOMSBURY,WC1,35/18,90,529958,181623,-0.128335,51.518588,Plotted By Council Officer,"(51.518588, -0.128335)",http://opendatacommunities.org/id/london-borough-council/camden,23/08/2018 09:00:24 PM
SPANIARDS ROAD,HAMPSTEAD TOWN,NW3,35/18,90,526472,186882,-0.176662,51.566641,Plotted By Council Officer,"(51.566641, -0.176662)",http://opendatacommunities.org/id/london-borough-council/camden,23/08/2018 09:00:13 PM
WESTBERE ROAD,FORTUNE GREEN,NW6,70/35,65,524390,185410,-0.207205,51.553875,Plotted By Council Officer,"(51.553875, -0.207205)",http://opendatacommunities.org/id/london-borough-council/camden,23/08/2018 09:00:15 PM
CORAM STREET,BLOOMSBURY,WC1,35/18,60,530109,182235,-0.125934,51.524053,Plotted By Council Officer,"(51.524053, -0.125934)",http://opendatacommunities.org/id/london-borough-council/camden,23/08/2018 09:00:23 PM
INVERNESS STREET,CAMDEN TOWN,NW1,35/18,60,528805,183913,-0.144107,51.539432,Plotted By Council Officer,"(51.539432, -0.144107)",http://opendatacommunities.org/id/london-borough-council/camden,23/08/2018 09:00:19 PM
CASTLEHAVEN ROAD,CAMDEN TOWN,NW1,35/18,95,528802,184599,-0.143899,51.545598,Plotted By Council Officer,"(51.545598, -0.143899)",http://opendatacommunities.org/id/london-borough-council/camden,23/08/2018 09:00:23 PM
RODERICK ROAD,GOSPEL OAK,NW3,35/18,60,527837,185456,-0.157497,51.553518,Plotted By Council Officer,"(51.553518, -0.157497)",http://opendatacommunities.org/id/london-borough-council/camden,23/08/2018 09:00:16 PM
LANCASTER GROVE,BELSIZE,NW3,35/18,60,526883,184651,-0.171539,51.546499,Plotted By Council Officer,"(51.546499, -0.171539)",http://opendatacommunities.org/id/london-borough-council/camden,23/08/2018 09:00:15 PM
HEATH DRIVE,FROGNAL AND FITZJOHNS,NW3,35/18,60,525529,185537,-0.19074,51.554764,Plotted By Council Officer,"(51.554764, -0.19074)",http://opendatacommunities.org/id/london-borough-council/camden,23/08/2018 09:00:11 PM
GASCONY AVENUE,KILBURN,NW6,35/18,61,525305,184179,-0.194452,51.542609,Plotted By Council Officer,"(51.542609, -0.194452)",http://opendatacommunities.org/id/london-borough-council/camden,23/08/2018 09:00:09 PM
HOWLAND STREET,BLOOMSBURY,W1,35/18,90,529383,181994,-0.136482,51.522054,Plotted By Council Officer,"(51.522054, -0.136482)",http://opendatacommunities.org/id/london-borough-council/camden,23/08/2018 09:00:22 PM
CROMER STREET,KING'S CROSS,WC1,35/18,90,530311,182649,-0.122871,51.527727,Plotted By Council Officer,"(51.527727, -0.122871)",http://opendatacommunities.org/id/london-borough-council/camden,23/08/2018 09:00:24 PM
PRIORY ROAD,SWISS COTTAGE,NW6,35/18,90,525680,184483,-0.188939,51.545258,Plotted By Council Officer,"(51.545258, -0.188939)",http://opendatacommunities.org/id/london-borough-council/camden,23/08/2018 09:00:10 PM
WAKEFIELD STREET,KING'S CROSS,WC1,35/18,90,530336,182466,-0.122579,51.526077,Plotted By Council Officer,"(51.526077, -0.122579)",http://opendatacommunities.org/id/london-borough-council/camden,23/08/2018 09:00:24 PM
POND STREET,HAMPSTEAD TOWN,NW3,35/18,90,527144,185451,-0.167489,51.55363,Plotted By Council Officer,"(51.55363, -0.167489)",http://opendatacommunities.org/id/london-borough-council/camden,23/08/2018 09:00:13 PM
MALDEN ROAD,HAVERSTOCK,NW5,35/18,90,528008,185140,-0.155146,51.55064,Plotted By Council Officer,"(51.55064, -0.155146)",http://opendatacommunities.org/id/london-borough-council/camden,23/08/2018 09:00:17 PM
SWAIN'S LANE,HIGHGATE,N6,35/18,90,528534,186509,-0.147064,51.562823,Plotted By Council Officer,"(51.562823, -0.147064)",http://opendatacommunities.org/id/london-borough-council/camden,23/08/2018 09:00:16 PM
BELSIZE PARK GARDENS,BELSIZE,NW3,35/18,90,527459,184602,-0.163255,51.545929,Plotted By Council Officer,"(51.545929, -0.163255)",http://opendatacommunities.org/id/london-borough-council/camden,23/08/2018 09:00:14 PM
NETHERHALL GARDENS,FROGNAL AND FITZJOHNS,NW3,35/18,60,526317,184785,-0.17965,51.54783,Plotted By Council Officer,"(51.54783, -0.17965)",http://opendatacommunities.org/id/london-borough-council/camden,23/08/2018 09:00:12 PM
FOOTPATH FROM 53 CHESTER ROAD TO CROFTDOWN ROAD,HIGHGATE,N19,35/18,21,528764,186505,-0.143749,51.562735,Plotted By Council Officer,"(51.562735, -0.143749)",http://opendatacommunities.org/id/london-borough-council/camden,23/08/2018 09:00:21 PM
NETHERWOOD STREET,KILBURN,NW6,35/18,90,524852,184428,-0.200893,51.544947,Plotted By Council Officer,"(51.544947, -0.200893)",http://opendatacommunities.org/id/london-borough-council/camden,23/08/2018 09:00:27 PM
HIGH HOLBORN,HOLBORN AND COVENT GARDEN,"EC1, WC1",35/18,90,530605,181555,-0.119041,51.517828,Plotted By Council Officer,"(51.517828, -0.119041)",http://opendatacommunities.org/id/london-borough-council/camden,23/08/2018 09:00:25 PM
COMPAYNE GARDENS,SWISS COTTAGE,NW6,35/18,60,525699,184470,-0.18867,51.545137,Plotted By Council Officer,"(51.545137, -0.18867)",http://opendatacommunities.org/id/london-borough-council/camden,23/08/2018 09:00:09 PM
OSSULSTON STREET,ST PANCRAS AND SOMERS TOWN,NW1,35/18,90,529979,182762,-0.127613,51.528819,Plotted By Council Officer,"(51.528819, -0.127613)",http://opendatacommunities.org/id/london-borough-council/camden,23/08/2018 09:00:22 PM
MEDLEY ROAD,WEST HAMPSTEAD,NW6,35/18,61,525273,184685,-0.194734,51.547164,Plotted By Council Officer,"(51.547164, -0.194734)",http://opendatacommunities.org/id/london-borough-council/camden,23/08/2018 09:00:08 PM
CLERKENWELL ROAD,HOLBORN AND COVENT GARDEN,EC1,35/18,90,531062,182010,-0.112289,51.521811,Plotted By Council Officer,"(51.521811, -0.112289)",http://opendatacommunities.org/id/london-borough-council/camden,23/08/2018 09:00:22 PM
BELSIZE PARK,FROGNAL AND FITZJOHNS,NW3,35/18,90,526821,184782,-0.172386,51.54769,Plotted By Council Officer,"(51.54769, -0.172386)",http://opendatacommunities.org/id/london-borough-council/camden,23/08/2018 09:00:14 PM
GOLDHURST TERRACE,SWISS COTTAGE,NW6,35/18,60,525877,184033,-0.186261,51.54117,Plotted By Council Officer,"(51.54117, -0.186261)",http://opendatacommunities.org/id/london-borough-council/camden,23/08/2018 09:00:10 PM
CHALTON STREET,ST PANCRAS AND SOMERS TOWN,NW1,35/18,60,529596,183146,-0.13299,51.532358,Plotted By Council Officer,"(51.532358, -0.13299)",http://opendatacommunities.org/id/london-borough-council/camden,23/08/2018 09:00:21 PM
SOUTHAMPTON PLACE,HOLBORN AND COVENT GARDEN,WC1,35/18,90,530382,181601,-0.122236,51.518293,Plotted By Council Officer,"(51.518293, -0.122236)",http://opendatacommunities.org/id/london-borough-council/camden,23/08/2018 09:00:25 PM
LAMBLE STREET,GOSPEL OAK,NW5,35/18,61,528097,185418,-0.153762,51.553118,Plotted By Council Officer,"(51.553118, -0.153762)",http://opendatacommunities.org/id/london-borough-council/camden,23/08/2018 09:00:18 PM
BEDFORD WAY,BLOOMSBURY,WC1,35/18,90,529915,182244,-0.128726,51.524179,Plotted By Council Officer,"(51.524179, -0.128726)",http://opendatacommunities.org/id/london-borough-council/camden,23/08/2018 09:00:22 PM
SHAFTESBURY AVENUE,HOLBORN AND COVENT GARDEN,WC2,35/18,90,530114,181331,-0.126196,51.515928,Plotted By Council Officer,"(51.515928, -0.126196)",http://opendatacommunities.org/id/london-borough-council/camden,23/08/2018 09:00:25 PM
LANCASTER GROVE,BELSIZE,NW3,35/18,60,527286,184543,-0.16577,51.545438,Plotted By Council Officer,"(51.545438, -0.16577)",http://opendatacommunities.org/id/london-borough-council/camden,23/08/2018 09:00:15 PM
CORAM STREET,BLOOMSBURY,WC1,35/18,60,530067,182228,-0.126542,51.524,Plotted By Council Officer,"(51.524, -0.126542)",http://opendatacommunities.org/id/london-borough-council/camden,23/08/2018 09:00:23 PM
ATHLONE STREET,HAVERSTOCK,NW5,35/18,60,528450,184876,-0.148871,51.548167,Plotted By Council Officer,"(51.548167, -0.148871)",http://opendatacommunities.org/id/london-borough-council/camden,23/08/2018 09:00:17 PM
MORTIMER PLACE,KILBURN,NW6,35/18,61,525727,183622,-0.188569,51.53751,Plotted By Council Officer,"(51.53751, -0.188569)",http://opendatacommunities.org/id/london-borough-council/camden,23/08/2018 09:00:10 PM
FREDERICK STREET,KING'S CROSS,WC1,35/18,90,530788,182735,-0.115967,51.52839,Plotted By Council Officer,"(51.52839, -0.115967)",http://opendatacommunities.org/id/london-borough-council/camden,23/08/2018 09:00:24 PM
GRANGEWAY,KILBURN,NW6,35/18,54,525013,184196,-0.198655,51.542827,Plotted By Council Officer,"(51.542827, -0.198655)",http://opendatacommunities.org/id/london-borough-council/camden,23/08/2018 09:00:10 PM
ARDWICK ROAD,FORTUNE GREEN,NW2,35/18,45,525141,185831,-0.196229,51.557493,Plotted By Council Officer,"(51.557493, -0.196229)",http://opendatacommunities.org/id/london-borough-council/camden,23/08/2018 09:00:08 PM
WOODSOME ROAD,HIGHGATE,NW5,35/18,45,528485,186089,-0.147924,51.55906,Plotted By Council Officer,"(51.55906, -0.147924)",http://opendatacommunities.org/id/london-borough-council/camden,23/08/2018 09:00:17 PM
GLENMORE ROAD,BELSIZE,NW3,35/18,60,527208,184895,-0.166767,51.548619,Plotted By Council Officer,"(51.548619, -0.166767)",http://opendatacommunities.org/id/london-borough-council/camden,23/08/2018 09:00:15 PM
HATTON GARDEN,HOLBORN AND COVENT GARDEN,EC1,35/18,90,531310,181976,-0.108729,51.521448,Plotted By Council Officer,"(51.521448, -0.108729)",http://opendatacommunities.org/id/london-borough-council/camden,23/08/2018 09:00:26 PM
BALMORE STREET,HIGHGATE,N19,35/18,60,528888,186624,-0.141918,51.563776,Plotted By Council Officer,"(51.563776, -0.141918)",http://opendatacommunities.org/id/london-borough-council/camden,23/08/2018 09:00:15 PM
MAITLAND PARK ROAD,HAVERSTOCK,NW3,35/18,90,527984,184821,-0.155608,51.547779,Plotted By Council Officer,"(51.547779, -0.155608)",http://opendatacommunities.org/id/london-borough-council/camden,23/08/2018 09:00:20 PM
NEW OXFORD STREET,HOLBORN AND COVENT GARDEN,WC1,35/18,140,530303,181491,-0.123414,51.517322,Plotted By Council Officer,"(51.517322, -0.123414)",http://opendatacommunities.org/id/london-borough-council/camden,23/08/2018 09:00:25 PM
THURLOW TERRACE,HAVERSTOCK,NW5,35/18,100,528021,184975,-0.155019,51.549154,Plotted By Council Officer,"(51.549154, -0.155019)",http://opendatacommunities.org/id/london-borough-council/camden,23/08/2018 09:00:18 PM
KING HENRY'S ROAD,SWISS COTTAGE,NW3,35/18,90,527310,184168,-0.165559,51.542062,Plotted By Council Officer,"(51.542062, -0.165559)",http://opendatacommunities.org/id/london-borough-council/camden,23/08/2018 09:00:15 PM
HARTLAND ROAD,CAMDEN TOWN,NW1,35/18,96,528617,184315,-0.146669,51.543087,Plotted By Council Officer,"(51.543087, -0.146669)",http://opendatacommunities.org/id/london-borough-council/camden,23/08/2018 09:00:17 PM
GRENVILLE STREET,HOLBORN AND COVENT GARDEN,WC1,35/18,90,530380,182145,-0.122063,51.523182,Plotted By Council Officer,"(51.523182, -0.122063)",http://opendatacommunities.org/id/london-borough-council/camden,23/08/2018 09:00:24 PM
ALBERT STREET,REGENT'S PARK,NW1,35/18,90,528787,183703,-0.144443,51.537549,Plotted By Council Officer,"(51.537549, -0.144443)",http://opendatacommunities.org/id/london-borough-council/camden,23/08/2018 09:00:19 PM
GUILFORD STREET,HOLBORN AND COVENT GARDEN,WC1,70/35,150,530616,182207,-0.118641,51.523685,Plotted By Council Officer,"(51.523685, -0.118641)",http://opendatacommunities.org/id/london-borough-council/camden,23/08/2018 09:00:24 PM
OAK HILL PARK,FROGNAL AND FITZJOHNS,NW3,35/18,61,525954,185844,-0.184503,51.557429,Plotted By Council Officer,"(51.557429, -0.184503)",http://opendatacommunities.org/id/london-borough-council/camden,23/08/2018 09:00:12 PM
HIGHGATE HIGH STREET,HIGHGATE,N6,35/18,90,528434,187388,-0.148185,51.570745,Plotted By Council Officer,"(51.570745, -0.148185)",http://opendatacommunities.org/id/london-borough-council/camden,23/08/2018 09:00:16 PM
CANNON PLACE,HAMPSTEAD TOWN,NW3,70/35,125,526598,186180,-0.175097,51.560304,Plotted By Council Officer,"(51.560304, -0.175097)",http://opendatacommunities.org/id/london-borough-council/camden,23/08/2018 09:00:12 PM
HEATH STREET,HAMPSTEAD TOWN,NW3,35/18,90,526383,185865,-0.17831,51.557521,Plotted By Council Officer,"(51.557521, -0.17831)",http://opendatacommunities.org/id/london-borough-council/camden,23/08/2018 09:00:13 PM
PROCTER STREET,HOLBORN AND COVENT GARDEN,WC1,35/18,90,530583,181654,-0.119321,51.518723,Plotted By Council Officer,"(51.518723, -0.119321)",http://opendatacommunities.org/id/london-borough-council/camden,23/08/2018 09:00:26 PM
BERNARD STREET,BLOOMSBURY,WC1,35/18,90,530311,182176,-0.123046,51.523476,Plotted By Council Officer,"(51.523476, -0.123046)",http://opendatacommunities.org/id/london-borough-council/camden,23/08/2018 09:00:23 PM
ETON ROAD,HAVERSTOCK,NW3,35/18,60,527761,184450,-0.158957,51.544495,Plotted By Council Officer,"(51.544495, -0.158957)",http://opendatacommunities.org/id/london-borough-council/camden,23/08/2018 09:00:14 PM
ARGYLE SQUARE,KING'S CROSS,WC1,35/18,60,530383,182794,-0.12178,51.529014,Plotted By Council Officer,"(51.529014, -0.12178)",http://opendatacommunities.org/id/london-borough-council/camden,23/08/2018 09:00:23 PM
BEDFORD SQUARE,BLOOMSBURY,WC1,70/35,100,529854,181711,-0.129801,51.519403,Plotted By Council Officer,"(51.519403, -0.129801)",http://opendatacommunities.org/id/london-borough-council/camden,23/08/2018 09:00:24 PM
GUILFORD STREET,HOLBORN AND COVENT GARDEN,WC1,35/18,140,530233,182055,-0.124214,51.522407,Plotted By Council Officer,"(51.522407, -0.124214)",http://opendatacommunities.org/id/london-borough-council/camden,23/08/2018 09:00:24 PM
HARTLAND ROAD,CAMDEN TOWN,NW1,35/18,96,528608,184285,-0.14681,51.54282,Plotted By Council Officer,"(51.54282, -0.14681)",http://opendatacommunities.org/id/london-borough-council/camden,23/08/2018 09:00:12 PM
RODERICK ROAD,GOSPEL OAK,NW3,35/18,60,527804,185525,-0.157947,51.554146,Plotted By Council Officer,"(51.554146, -0.157947)",http://opendatacommunities.org/id/london-borough-council/camden,23/08/2018 09:00:16 PM
CONSTANTINE ROAD,GOSPEL OAK,NW3,35/18,60,527550,185641,-0.161567,51.555246,Plotted By Council Officer,"(51.555246, -0.161567)",http://opendatacommunities.org/id/london-borough-council/camden,23/08/2018 09:00:12 PM
GREENCROFT GARDENS,SWISS COTTAGE,NW6,35/18,60,526187,184433,-0.18165,51.544696,Plotted By Council Officer,"(51.544696, -0.18165)",http://opendatacommunities.org/id/london-borough-council/camden,23/08/2018 09:00:10 PM
NEW OXFORD STREET,HOLBORN AND COVENT GARDEN,WC1,35/18,140,530125,181448,-0.125994,51.516977,Plotted By Council Officer,"(51.516977, -0.125994)",http://opendatacommunities.org/id/london-borough-council/camden,23/08/2018 09:00:25 PM
FITZROY SQUARE,BLOOMSBURY,W1,70/35,100,529166,182103,-0.139568,51.523083,Plotted By Council Officer,"(51.523083, -0.139568)",http://opendatacommunities.org/id/london-borough-council/camden,23/08/2018 09:00:22 PM
ASHDOWN CRESCENT,GOSPEL OAK,NW5,35/18,61,528232,185096,-0.151933,51.550194,Plotted By Council Officer,"(51.550194, -0.151933)",http://opendatacommunities.org/id/london-borough-council/camden,23/08/2018 09:00:18 PM
PLATT'S LANE,FROGNAL AND FITZJOHNS,NW3,35/18,90,525208,185912,-0.195234,51.558206,Plotted By Council Officer,"(51.558206, -0.195234)",http://opendatacommunities.org/id/london-borough-council/camden,23/08/2018 09:00:12 PM
ISLIP STREET,KENTISH TOWN,NW5,35/18,90,529088,185042,-0.139614,51.549513,Plotted By Council Officer,"(51.549513, -0.139614)",http://opendatacommunities.org/id/london-borough-council/camden,23/08/2018 09:00:18 PM
RICHBOROUGH ROAD,FORTUNE GREEN,NW2,35/18,60,524109,185614,-0.211184,51.55577,Plotted By Council Officer,"(51.55577, -0.211184)",http://opendatacommunities.org/id/london-borough-council/camden,23/08/2018 09:00:09 PM
INVERFORTH CLOSE,HAMPSTEAD TOWN,NW3,70/35,100,526167,186734,-0.181113,51.565379,Plotted By Council Officer,"(51.565379, -0.181113)",http://opendatacommunities.org/id/london-borough-council/camden,23/08/2018 09:00:11 PM
COLLEGE CRESCENT,FROGNAL AND FITZJOHNS,NW3,35/18,96,526645,184436,-0.175047,51.54462,Plotted By Council Officer,"(51.54462, -0.175047)",http://opendatacommunities.org/id/london-borough-council/camden,23/08/2018 09:00:14 PM
PROVOST ROAD,HAVERSTOCK,NW3,35/18,60,527792,184466,-0.158505,51.544632,Plotted By Council Officer,"(51.544632, -0.158505)",http://opendatacommunities.org/id/london-borough-council/camden,23/08/2018 09:00:15 PM
BOLTON ROAD,KILBURN,NW8,35/18,60,525888,183587,-0.186262,51.537159,Plotted By Council Officer,"(51.537159, -0.186262)",http://opendatacommunities.org/id/london-borough-council/camden,23/08/2018 09:00:09 PM
LAMB'S CONDUIT STREET,HOLBORN AND COVENT GARDEN,WC1,35/18,90,530667,181903,-0.118019,51.520941,Plotted By Council Officer,"(51.520941, -0.118019)",http://opendatacommunities.org/id/london-borough-council/camden,23/08/2018 09:00:26 PM
GRANARY STREET,ST PANCRAS AND SOMERS TOWN,NW1,35/18,90,529694,183707,-0.131371,51.537377,Plotted By Council Officer,"(51.537377, -0.131371)",http://opendatacommunities.org/id/london-borough-council/camden,23/08/2018 09:00:22 PM
RYLAND ROAD,KENTISH TOWN,NW5,35/18,60,528624,184838,-0.146377,51.547786,Plotted By Council Officer,"(51.547786, -0.146377)",http://opendatacommunities.org/id/london-borough-council/camden,23/08/2018 09:00:17 PM
GRAFTON ROAD,GOSPEL OAK,NW5,35/18,90,528470,185028,-0.148528,51.549529,Plotted By Council Officer,"(51.549529, -0.148528)",http://opendatacommunities.org/id/london-borough-council/camden,23/08/2018 09:00:20 PM
BELSIZE SQUARE,BELSIZE,NW3,35/18,60,526846,184761,-0.172033,51.547496,Plotted By Council Officer,"(51.547496, -0.172033)",http://opendatacommunities.org/id/london-borough-council/camden,23/08/2018 09:00:14 PM
LISSENDEN GARDENS,HIGHGATE,NW5,35/18,60,528351,185871,-0.149935,51.557131,Plotted By Council Officer,"(51.557131, -0.149935)",http://opendatacommunities.org/id/london-borough-council/camden,23/08/2018 09:00:21 PM
LINDFIELD GARDENS,FROGNAL AND FITZJOHNS,NW3,35/18,60,526094,185245,-0.182699,51.552014,Plotted By Council Officer,"(51.552014, -0.182699)",http://opendatacommunities.org/id/london-borough-council/camden,23/08/2018 09:00:11 PM
ROSSLYN HILL,HAMPSTEAD TOWN,NW3,35/18,90,526869,185508,-0.171432,51.554204,Plotted By Council Officer,"(51.554204, -0.171432)",http://opendatacommunities.org/id/london-borough-council/camden,23/08/2018 09:00:13 PM
ST PANCRAS WAY,ST PANCRAS AND SOMERS TOWN,NW1,35/18,90,529393,184003,-0.1356,51.540106,Plotted By Council Officer,"(51.540106, -0.1356)",http://opendatacommunities.org/id/london-borough-council/camden,23/08/2018 09:00:21 PM
MORNINGTON STREET,REGENT'S PARK,NW1,35/18,90,528842,183347,-0.14378,51.534337,Plotted By Council Officer,"(51.534337, -0.14378)",http://opendatacommunities.org/id/london-borough-council/camden,23/08/2018 09:00:19 PM
FROGNAL LANE,FROGNAL AND FITZJOHNS,NW3,35/18,60,525752,185375,-0.187583,51.553259,Plotted By Council Officer,"(51.553259, -0.187583)",http://opendatacommunities.org/id/london-borough-council/camden,23/08/2018 09:00:11 PM
HIGHGATE WEST HILL,HIGHGATE,N6,35/18,90,528074,186892,-0.153557,51.56637,Plotted By Council Officer,"(51.56637, -0.153557)",http://opendatacommunities.org/id/london-borough-council/camden,23/08/2018 09:00:21 PM
STEELE'S MEWS NORTH,HAVERSTOCK,NW3,35/18,60,527757,184678,-0.158932,51.546545,Plotted By Council Officer,"(51.546545, -0.158932)",http://opendatacommunities.org/id/london-borough-council/camden,23/08/2018 09:00:15 PM
HIGH HOLBORN,HOLBORN AND COVENT GARDEN,"EC1, WC1",35/18,90,530385,181504,-0.122228,51.51742,Plotted By Council Officer,"(51.51742, -0.122228)",http://opendatacommunities.org/id/london-borough-council/camden,23/08/2018 09:00:25 PM
OSPRINGE ROAD,KENTISH TOWN,NW5,35/18,60,529326,185525,-0.136006,51.5538,Plotted By Council Officer,"(51.5538, -0.136006)",http://opendatacommunities.org/id/london-borough-council/camden,23/08/2018 09:00:18 PM
BELSIZE PARK,FROGNAL AND FITZJOHNS,NW3,35/18,90,526784,184691,-0.172952,51.546881,Plotted By Council Officer,"(51.546881, -0.172952)",http://opendatacommunities.org/id/london-borough-council/camden,23/08/2018 09:00:14 PM
CHALK FARM ROAD,CAMDEN TOWN,NW1,70/35,90,528494,184287,-0.148452,51.542864,Plotted By Council Officer,"(51.542864, -0.148452)",http://opendatacommunities.org/id/london-borough-council/camden,23/08/2018 09:00:17 PM
VALE OF HEALTH,HAMPSTEAD TOWN,NW3,35/18,60,526442,186452,-0.177249,51.562783,Plotted By Council Officer,"(51.562783, -0.177249)",http://opendatacommunities.org/id/london-borough-council/camden,23/08/2018 09:00:13 PM
MARQUIS ROAD,CANTELOWES,NW1,35/18,90,529978,184482,-0.126992,51.544277,Plotted By Council Officer,"(51.544277, -0.126992)",http://opendatacommunities.org/id/london-borough-council/camden,23/08/2018 09:00:20 PM
KINGSWAY,HOLBORN AND COVENT GARDEN,WC1,35/18,101,530567,181420,-0.119638,51.516623,Plotted By Council Officer,"(51.516623, -0.119638)",http://opendatacommunities.org/id/london-borough-council/camden,23/08/2018 09:00:25 PM
KENTISH TOWN ROAD,CAMDEN TOWN,NW5,35/18,90,528950,184332,-0.141864,51.543164,Plotted By Council Officer,"(51.543164, -0.141864)",http://opendatacommunities.org/id/london-borough-council/camden,23/08/2018 09:00:18 PM
SWINTON PLACE,KING'S CROSS,WC1,35/18,90,530682,182787,-0.117475,51.528882,Plotted By Council Officer,"(51.528882, -0.117475)",http://opendatacommunities.org/id/london-borough-council/camden,23/08/2018 09:00:24 PM
BILLY FURY WAY,WEST HAMPSTEAD,NW6,35/18,29,525994,184994,-0.18423,51.549781,Plotted By Council Officer,"(51.549781, -0.18423)",http://opendatacommunities.org/id/london-borough-council/camden,23/08/2018 09:00:10 PM
SANDALL ROAD,CANTELOWES,NW5,35/18,90,529490,184656,-0.133962,51.545953,Plotted By Council Officer,"(51.545953, -0.133962)",http://opendatacommunities.org/id/london-borough-council/camden,23/08/2018 09:00:17 PM
HIGHGATE ROAD,HIGHGATE,NW5,35/18,90,528805,185485,-0.143532,51.553559,Plotted By Council Officer,"(51.553559, -0.143532)",http://opendatacommunities.org/id/london-borough-council/camden,23/08/2018 09:00:16 PM
CHURCHILL ROAD,HIGHGATE,NW5,35/18,60,528897,185933,-0.142041,51.557564,Plotted By Council Officer,"(51.557564, -0.142041)",http://opendatacommunities.org/id/london-borough-council/camden,23/08/2018 09:00:16 PM
LADY SOMERSET ROAD,KENTISH TOWN,NW5,35/18,90,528990,185678,-0.140794,51.555251,Plotted By Council Officer,"(51.555251, -0.140794)",http://opendatacommunities.org/id/london-borough-council/camden,23/08/2018 09:00:16 PM
VARNDELL STREET,REGENT'S PARK,NW1,35/18,60,529075,182808,-0.140621,51.52944,Plotted By Council Officer,"(51.52944, -0.140621)",http://opendatacommunities.org/id/london-borough-council/camden,23/08/2018 09:00:26 PM
INKERMAN ROAD,KENTISH TOWN,NW5,35/18,60,528790,184901,-0.143961,51.548314,Plotted By Council Officer,"(51.548314, -0.143961)",http://opendatacommunities.org/id/london-borough-council/camden,23/08/2018 09:00:17 PM
HOLLYCROFT AVENUE,FROGNAL AND FITZJOHNS,NW3,35/18,60,525524,185998,-0.190648,51.558908,Plotted By Council Officer,"(51.558908, -0.190648)",http://opendatacommunities.org/id/london-borough-council/camden,23/08/2018 09:00:11 PM
KIDDERPORE GARDENS,FROGNAL AND FITZJOHNS,NW3,35/18,60,525524,185858,-0.190698,51.55765,Plotted By Council Officer,"(51.55765, -0.190698)",http://opendatacommunities.org/id/london-borough-council/camden,23/08/2018 09:00:11 PM
PROCTER STREET,HOLBORN AND COVENT GARDEN,WC1,35/18,90,530548,181689,-0.119812,51.519045,Plotted By Council Officer,"(51.519045, -0.119812)",http://opendatacommunities.org/id/london-borough-council/camden,23/08/2018 09:00:26 PM
EAST HEATH ROAD,HAMPSTEAD TOWN,NW3,35/18,90,526943,186037,-0.170175,51.558941,Plotted By Council Officer,"(51.558941, -0.170175)",http://opendatacommunities.org/id/london-borough-council/camden,23/08/2018 09:00:13 PM
HIGH HOLBORN,HOLBORN AND COVENT GARDEN,"EC1, WC1",35/18,90,530050,181305,-0.127127,51.515709,Plotted By Council Officer,"(51.515709, -0.127127)",http://opendatacommunities.org/id/london-borough-council/camden,23/08/2018 09:00:25 PM
PRIMROSE HILL ROAD,REGENT'S PARK,NW3,35/18,90,527735,183967,-0.159507,51.54016,Plotted By Council Officer,"(51.54016, -0.159507)",http://opendatacommunities.org/id/london-borough-council/camden,23/08/2018 09:00:15 PM
FLEET ROAD,GOSPEL OAK,NW3,35/18,65,527611,185417,-0.160769,51.553219,Plotted By Council Officer,"(51.553219, -0.160769)",http://opendatacommunities.org/id/london-borough-council/camden,23/08/2018 09:00:18 PM
MALDEN ROAD,HAVERSTOCK,NW5,35/18,90,528059,185134,-0.154413,51.550574,Plotted By Council Officer,"(51.550574, -0.154413)",http://opendatacommunities.org/id/london-borough-council/camden,23/08/2018 09:00:17 PM
CANFIELD GARDENS,SWISS COTTAGE,NW6,35/18,54,526211,184604,-0.181242,51.546227,Plotted By Council Officer,"(51.546227, -0.181242)",http://opendatacommunities.org/id/london-borough-council/camden,23/08/2018 09:00:09 PM
WEST HEATH ROAD,HAMPSTEAD TOWN,NW3,35/18,90,525975,186331,-0.184026,51.5618,Plotted By Council Officer,"(51.5618, -0.184026)",http://opendatacommunities.org/id/london-borough-council/camden,23/08/2018 09:00:12 PM
AGAR GROVE,CANTELOWES,NW1,35/18,90,529536,184300,-0.13343,51.542743,Plotted By Council Officer,"(51.542743, -0.13343)",http://opendatacommunities.org/id/london-borough-council/camden,23/08/2018 09:00:20 PM
ABERDARE GARDENS,SWISS COTTAGE,NW6,35/18,60,526107,184210,-0.182882,51.54271,Plotted By Council Officer,"(51.54271, -0.182882)",http://opendatacommunities.org/id/london-borough-council/camden,23/08/2018 09:00:09 PM
WINCHESTER ROAD,SWISS COTTAGE,NW3,35/18,60,526831,184293,-0.172418,51.543293,Plotted By Council Officer,"(51.543293, -0.172418)",http://opendatacommunities.org/id/london-borough-council/camden,23/08/2018 09:00:15 PM
CHALK FARM ROAD,CAMDEN TOWN,NW1,70/35,90,528389,184304,-0.149959,51.54304,Plotted By Council Officer,"(51.54304, -0.149959)",http://opendatacommunities.org/id/london-borough-council/camden,23/08/2018 09:00:17 PM
CARDINGTON STREET,REGENT'S PARK,NW1,35/18,90,529442,182669,-0.135384,51.528107,Plotted By Council Officer,"(51.528107, -0.135384)",http://opendatacommunities.org/id/london-borough-council/camden,23/08/2018 09:00:21 PM
THANET STREET,KING'S CROSS,WC1,35/18,90,530166,182569,-0.12499,51.527042,Plotted By Council Officer,"(51.527042, -0.12499)",http://opendatacommunities.org/id/london-borough-council/camden,23/08/2018 09:00:24 PM
BELSIZE SQUARE,BELSIZE,NW3,35/18,60,526923,184785,-0.170915,51.547694,Plotted By Council Officer,"(51.547694, -0.170915)",http://opendatacommunities.org/id/london-borough-council/camden,23/08/2018 09:00:14 PM
DELANCEY STREET,CAMDEN TOWN,NW1,35/18,150,528821,183582,-0.143997,51.536454,Plotted By Council Officer,"(51.536454, -0.143997)",http://opendatacommunities.org/id/london-borough-council/camden,23/08/2018 09:00:19 PM
CHESTER ROAD,HIGHGATE,N19,35/18,90,528888,186574,-0.141936,51.563327,Plotted By Council Officer,"(51.563327, -0.141936)",http://opendatacommunities.org/id/london-borough-council/camden,23/08/2018 09:00:15 PM
FITZJOHN'S AVENUE,FROGNAL AND FITZJOHNS,NW3,35/18,140,526490,185480,-0.176906,51.554037,Plotted By Council Officer,"(51.554037, -0.176906)",http://opendatacommunities.org/id/london-borough-council/camden,23/08/2018 09:00:19 PM
WEST END LANE,WEST HAMPSTEAD,NW6,35/18,90,525388,184175,-0.193258,51.542555,Plotted By Council Officer,"(51.542555, -0.193258)",http://opendatacommunities.org/id/london-borough-council/camden,23/08/2018 09:00:10 PM
WHITFIELD PLACE,BLOOMSBURY,W1,35/18,60,529229,182200,-0.138625,51.52394,Plotted By Council Officer,"(51.52394, -0.138625)",http://opendatacommunities.org/id/london-borough-council/camden,23/08/2018 09:00:23 PM
MAKEPEACE AVENUE,HIGHGATE,N6,35/18,90,528287,186691,-0.150559,51.564515,Plotted By Council Officer,"(51.564515, -0.150559)",http://opendatacommunities.org/id/london-borough-council/camden,23/08/2018 09:00:21 PM
ROYAL COLLEGE STREET,ST PANCRAS AND SOMERS TOWN,NW1,35/18,90,529373,183853,-0.135943,51.538763,Plotted By Council Officer,"(51.538763, -0.135943)",http://opendatacommunities.org/id/london-borough-council/camden,23/08/2018 09:00:21 PM
TASKER ROAD,GOSPEL OAK,NW3,35/18,61,527746,185137,-0.158924,51.550672,Plotted By Council Officer,"(51.550672, -0.158924)",http://opendatacommunities.org/id/london-borough-council/camden,23/08/2018 09:00:18 PM
HOLMDALE ROAD,WEST HAMPSTEAD,NW6,35/18,61,525230,185200,-0.19517,51.551802,Plotted By Council Officer,"(51.551802, -0.19517)",http://opendatacommunities.org/id/london-borough-council/camden,23/08/2018 09:00:08 PM
TOTTENHAM COURT ROAD,BLOOMSBURY,W1,70/35,250,529822,181401,-0.130376,51.516624,Plotted By Council Officer,"(51.516624, -0.130376)",http://opendatacommunities.org/id/london-borough-council/camden,23/08/2018 09:00:23 PM
PANCRAS ROAD,ST PANCRAS AND SOMERS TOWN,"N1, NW1",35/18,90,530108,183112,-0.125625,51.531935,Plotted By Council Officer,"(51.531935, -0.125625)",http://opendatacommunities.org/id/london-borough-council/camden,23/08/2018 09:00:22 PM
CHETWYND ROAD,HIGHGATE,NW5,35/18,90,528950,186095,-0.141218,51.559008,Plotted By Council Officer,"(51.559008, -0.141218)",http://opendatacommunities.org/id/london-borough-council/camden,23/08/2018 09:00:16 PM
LOUDOUN ROAD,SWISS COTTAGE,NW8,35/18,90,526395,183984,-0.178813,51.540614,Plotted By Council Officer,"(51.540614, -0.178813)",http://opendatacommunities.org/id/london-borough-council/camden,23/08/2018 09:00:10 PM
PENRYN STREET,ST PANCRAS AND SOMERS TOWN,NW1,35/18,60,529676,183310,-0.131777,51.533814,Plotted By Council Officer,"(51.533814, -0.131777)",http://opendatacommunities.org/id/london-borough-council/camden,23/08/2018 09:00:27 PM
STRATFORD VILLAS,CANTELOWES,NW1,35/18,90,529501,184326,-0.133925,51.542984,Plotted By Council Officer,"(51.542984, -0.133925)",http://opendatacommunities.org/id/london-borough-council/camden,23/08/2018 09:00:21 PM
FORDWYCH ROAD,FORTUNE GREEN,NW2,70/35,50,524571,184996,-0.204742,51.550114,Plotted By Council Officer,"(51.550114, -0.204742)",http://opendatacommunities.org/id/london-borough-council/camden,23/08/2018 09:00:08 PM
GRAFTON ROAD,GOSPEL OAK,NW5,35/18,90,528281,185359,-0.151131,51.552546,Plotted By Council Officer,"(51.552546, -0.151131)",http://opendatacommunities.org/id/london-borough-council/camden,23/08/2018 09:00:17 PM
MINSTER ROAD,FORTUNE GREEN,NW2,35/18,61,524484,185269,-0.2059,51.552587,Plotted By Council Officer,"(51.552587, -0.2059)",http://opendatacommunities.org/id/london-borough-council/camden,23/08/2018 09:00:09 PM
HOLMDALE ROAD,WEST HAMPSTEAD,NW6,35/18,61,525247,185149,-0.194943,51.55134,Plotted By Council Officer,"(51.55134, -0.194943)",http://opendatacommunities.org/id/london-borough-council/camden,23/08/2018 09:00:08 PM
THURLOW ROAD,HAMPSTEAD TOWN,NW3,35/18,60,526809,185520,-0.172293,51.554325,Plotted By Council Officer,"(51.554325, -0.172293)",http://opendatacommunities.org/id/london-borough-council/camden,23/08/2018 09:00:12 PM
LEIGHTON GROVE,KENTISH TOWN,NW5,35/18,60,529502,185370,-0.133526,51.552366,Plotted By Council Officer,"(51.552366, -0.133526)",http://opendatacommunities.org/id/london-borough-council/camden,23/08/2018 09:00:18 PM
REGNART BUILDINGS,REGENT'S PARK,NW1,35/18,30,529437,182517,-0.135512,51.526742,Plotted By Council Officer,"(51.526742, -0.135512)",http://opendatacommunities.org/id/london-borough-council/camden,23/08/2018 09:00:22 PM
EAST HEATH ROAD,HAMPSTEAD TOWN,NW3,35/18,90,526428,186233,-0.17753,51.560818,Plotted By Council Officer,"(51.560818, -0.17753)",http://opendatacommunities.org/id/london-borough-council/camden,23/08/2018 09:00:13 PM
ETON AVENUE,BELSIZE,NW3,35/18,96,527043,184457,-0.169303,51.54472,Plotted By Council Officer,"(51.54472, -0.169303)",http://opendatacommunities.org/id/london-borough-council/camden,23/08/2018 09:00:14 PM
ACOL ROAD,SWISS COTTAGE,NW6,70/35,60,525652,184132,-0.189468,51.54211,Plotted By Council Officer,"(51.54211, -0.189468)",http://opendatacommunities.org/id/london-borough-council/camden,23/08/2018 09:00:09 PM
LANCASTER GROVE,BELSIZE,NW3,35/18,60,527043,184583,-0.169258,51.545852,Plotted By Council Officer,"(51.545852, -0.169258)",http://opendatacommunities.org/id/london-borough-council/camden,23/08/2018 09:00:15 PM
DRURY LANE,HOLBORN AND COVENT GARDEN,WC2,35/18,90,530278,181319,-0.123838,51.515782,Plotted By Council Officer,"(51.515782, -0.123838)",http://opendatacommunities.org/id/london-borough-council/camden,23/08/2018 09:00:24 PM
MORTIMER CRESCENT,KILBURN,NW6,35/18,60,525766,183629,-0.188005,51.537564,Plotted By Council Officer,"(51.537564, -0.188005)",http://opendatacommunities.org/id/london-borough-council/camden,23/08/2018 09:00:10 PM
ROCHESTER SQUARE,CANTELOWES,NW1,35/18,60,529488,184339,-0.134107,51.543104,Plotted By Council Officer,"(51.543104, -0.134107)",http://opendatacommunities.org/id/london-borough-council/camden,23/08/2018 09:00:20 PM
PAKENHAM STREET,KING'S CROSS,WC1,35/18,90,530912,182424,-0.114296,51.525566,Plotted By Council Officer,"(51.525566, -0.114296)",http://opendatacommunities.org/id/london-borough-council/camden,23/08/2018 09:00:24 PM
AVENUE ROAD,SWISS COTTAGE,NW8,35/18,90,526995,183803,-0.170231,51.538853,Plotted By Council Officer,"(51.538853, -0.170231)",http://opendatacommunities.org/id/london-borough-council/camden,23/08/2018 09:00:27 PM
MORNINGTON STREET,REGENT'S PARK,NW1,35/18,90,528886,183377,-0.143135,51.534596,Plotted By Council Officer,"(51.534596, -0.143135)",http://opendatacommunities.org/id/london-borough-council/camden,23/08/2018 09:00:19 PM
HOLLY WALK,FROGNAL AND FITZJOHNS,NW3,70/35,125,526219,185751,-0.180716,51.556534,Plotted By Council Officer,"(51.556534, -0.180716)",http://opendatacommunities.org/id/london-borough-council/camden,23/08/2018 09:00:11 PM
CANTELOWES ROAD,CANTELOWES,NW1,35/18,90,529854,184505,-0.128771,51.544512,Plotted By Council Officer,"(51.544512, -0.128771)",http://opendatacommunities.org/id/london-borough-council/camden,23/08/2018 09:00:20 PM
CHRISTCHURCH PASSAGE,HAMPSTEAD TOWN,NW3,70/35,125,526492,186069,-0.176666,51.55933,Plotted By Council Officer,"(51.55933, -0.176666)",http://opendatacommunities.org/id/london-borough-council/camden,23/08/2018 09:00:12 PM
GAYTON ROAD,HAMPSTEAD TOWN,NW3,35/18,100,526634,185888,-0.174683,51.557672,Plotted By Council Officer,"(51.557672, -0.174683)",http://opendatacommunities.org/id/london-borough-council/camden,23/08/2018 09:00:13 PM
MIDLAND ROAD,ST PANCRAS AND SOMERS TOWN,NW1,35/18,150,530026,182955,-0.126864,51.530543,Plotted By Council Officer,"(51.530543, -0.126864)",http://opendatacommunities.org/id/london-borough-council/camden,23/08/2018 09:00:22 PM
CAROL STREET,CAMDEN TOWN,NW1,35/18,61,529063,183892,-0.140396,51.539184,Plotted By Council Officer,"(51.539184, -0.140396)",http://opendatacommunities.org/id/london-borough-council/camden,23/08/2018 09:00:20 PM
DRUMMOND STREET,REGENT'S PARK,NW1,35/18,90,529281,182505,-0.137764,51.52667,Plotted By Council Officer,"(51.52667, -0.137764)",http://opendatacommunities.org/id/london-borough-council/camden,23/08/2018 09:00:22 PM
KING HENRY'S ROAD,SWISS COTTAGE,NW3,35/18,90,527186,184145,-0.167355,51.541884,Plotted By Council Officer,"(51.541884, -0.167355)",http://opendatacommunities.org/id/london-borough-council/camden,23/08/2018 09:00:15 PM
MUSEUM STREET,HOLBORN AND COVENT GARDEN,WC1,35/18,60,530209,181419,-0.124795,51.516697,Plotted By Council Officer,"(51.516697, -0.124795)",http://opendatacommunities.org/id/london-borough-council/camden,23/08/2018 09:00:25 PM
HIGHGATE ROAD,HIGHGATE,NW5,35/18,90,528785,185503,-0.143813,51.553726,Plotted By Council Officer,"(51.553726, -0.143813)",http://opendatacommunities.org/id/london-borough-council/camden,23/08/2018 09:00:16 PM
PATSHULL ROAD,CANTELOWES,NW5,35/18,90,529144,184784,-0.138902,51.547182,Plotted By Council Officer,"(51.547182, -0.138902)",http://opendatacommunities.org/id/london-borough-council/camden,23/08/2018 09:00:18 PM
MONTAGUE PLACE,BLOOMSBURY,WC1,35/18,90,529951,181824,-0.128362,51.520396,Plotted By Council Officer,"(51.520396, -0.128362)",http://opendatacommunities.org/id/london-borough-council/camden,23/08/2018 09:00:25 PM
SOUTH HILL PARK,HAMPSTEAD TOWN,NW3,35/18,60,527419,185918,-0.163355,51.557765,Plotted By Council Officer,"(51.557765, -0.163355)",http://opendatacommunities.org/id/london-borough-council/camden,23/08/2018 09:00:13 PM
SANDY ROAD,HAMPSTEAD TOWN,NW3,35/18,125,526011,186945,-0.183287,51.56731,Plotted By Council Officer,"(51.56731, -0.183287)",http://opendatacommunities.org/id/london-borough-council/camden,23/08/2018 09:00:12 PM
PLENDER STREET,ST PANCRAS AND SOMERS TOWN,NW1,35/18,90,529148,183546,-0.139298,51.536055,Plotted By Council Officer,"(51.536055, -0.139298)",http://opendatacommunities.org/id/london-borough-council/camden,23/08/2018 09:00:20 PM
ASHDOWN CRESCENT,GOSPEL OAK,NW5,35/18,61,528254,185113,-0.15161,51.550341,Plotted By Council Officer,"(51.550341, -0.15161)",http://opendatacommunities.org/id/london-borough-council/camden,23/08/2018 09:00:18 PM
KEMPLAY ROAD,HAMPSTEAD TOWN,NW3,35/18,60,526748,185695,-0.173109,51.555912,Plotted By Council Officer,"(51.555912, -0.173109)",http://opendatacommunities.org/id/london-borough-council/camden,23/08/2018 09:00:13 PM
DRUMMOND STREET,REGENT'S PARK,NW1,35/18,90,529208,182473,-0.138827,51.526399,Plotted By Council Officer,"(51.526399, -0.138827)",http://opendatacommunities.org/id/london-borough-council/camden,23/08/2018 09:00:22 PM
ST GILES HIGH STREET,HOLBORN AND COVENT GARDEN,WC1,70/35,250,530072,181311,-0.126808,51.515758,Plotted By Council Officer,"(51.515758, -0.126808)",http://opendatacommunities.org/id/london-borough-council/camden,23/08/2018 09:00:25 PM
BELSIZE PARK GARDENS,BELSIZE,NW3,35/18,90,526971,184866,-0.170193,51.548412,Plotted By Council Officer,"(51.548412, -0.170193)",http://opendatacommunities.org/id/london-borough-council/camden,23/08/2018 09:00:14 PM
ACHILLES ROAD,FORTUNE GREEN,NW6,70/35,60,525112,185444,-0.196785,51.554021,Plotted By Council Officer,"(51.554021, -0.196785)",http://opendatacommunities.org/id/london-borough-council/camden,23/08/2018 09:00:08 PM
MALET STREET,BLOOMSBURY,WC1,35/18,90,529907,181823,-0.128996,51.520397,Plotted By Council Officer,"(51.520397, -0.128996)",http://opendatacommunities.org/id/london-borough-council/camden,23/08/2018 09:00:23 PM
AGAR GROVE,CANTELOWES,NW1,35/18,90,529703,184347,-0.131006,51.543127,Plotted By Council Officer,"(51.543127, -0.131006)",http://opendatacommunities.org/id/london-borough-council/camden,23/08/2018 09:00:20 PM
BILLY FURY WAY,WEST HAMPSTEAD,NW6,35/18,29,525582,184744,-0.190259,51.547626,Plotted By Council Officer,"(51.547626, -0.190259)",http://opendatacommunities.org/id/london-borough-council/camden,23/08/2018 09:00:10 PM
FLEET ROAD,GOSPEL OAK,NW3,35/18,65,527380,185477,-0.164077,51.55381,Plotted By Council Officer,"(51.55381, -0.164077)",http://opendatacommunities.org/id/london-borough-council/camden,23/08/2018 09:00:13 PM
CAMDEN SQUARE,CANTELOWES,NW1,35/18,90,529698,184582,-0.130991,51.54524,Plotted By Council Officer,"(51.54524, -0.130991)",http://opendatacommunities.org/id/london-borough-council/camden,23/08/2018 09:00:20 PM
LINCOLN'S INN FIELDS,HOLBORN AND COVENT GARDEN,WC1,70/35,60,530713,181444,-0.117526,51.516805,Plotted By Council Officer,"(51.516805, -0.117526)",http://opendatacommunities.org/id/london-borough-council/camden,23/08/2018 09:00:26 PM
PRINCE OF WALES ROAD,HAVERSTOCK,NW5,35/18,159,528802,184721,-0.143854,51.546694,Plotted By Council Officer,"(51.546694, -0.143854)",http://opendatacommunities.org/id/london-borough-council/camden,23/08/2018 09:00:17 PM
MERCER STREET,HOLBORN AND COVENT GARDEN,WC2,70/35,60,530013,181133,-0.127724,51.514172,Plotted By Council Officer,"(51.514172, -0.127724)",http://opendatacommunities.org/id/london-borough-council/camden,23/08/2018 09:00:25 PM
COTLEIGH ROAD,KILBURN,NW6,35/18,54,525369,184288,-0.193491,51.543575,Plotted By Council Officer,"(51.543575, -0.193491)",http://opendatacommunities.org/id/london-borough-council/camden,23/08/2018 09:00:09 PM
DUNOLLIE ROAD,KENTISH TOWN,NW5,35/18,60,529255,185393,-0.137078,51.55263,Plotted By Council Officer,"(51.55263, -0.137078)",http://opendatacommunities.org/id/london-borough-council/camden,23/08/2018 09:00:18 PM
CROFTDOWN ROAD,HIGHGATE,NW5,35/18,90,528664,186285,-0.145272,51.560781,Plotted By Council Officer,"(51.560781, -0.145272)",http://opendatacommunities.org/id/london-borough-council/camden,23/08/2018 09:00:16 PM
ARDWICK ROAD,FORTUNE GREEN,NW2,35/18,45,525027,185920,-0.197841,51.558318,Plotted By Council Officer,"(51.558318, -0.197841)",http://opendatacommunities.org/id/london-borough-council/camden,23/08/2018 09:00:08 PM
SHARPLESHALL STREET,CAMDEN TOWN,NW1,35/18,60,527956,184050,-0.156292,51.540856,Plotted By Council Officer,"(51.540856, -0.156292)",http://opendatacommunities.org/id/london-borough-council/camden,23/08/2018 09:00:20 PM
ALBERT STREET,REGENT'S PARK,NW1,35/18,60,529006,183294,-0.141437,51.533823,Plotted By Council Officer,"(51.533823, -0.141437)",http://opendatacommunities.org/id/london-borough-council/camden,23/08/2018 09:00:19 PM
WEST END LANE,WEST HAMPSTEAD,NW6,35/18,90,525496,184464,-0.191598,51.545128,Plotted By Council Officer,"(51.545128, -0.191598)",http://opendatacommunities.org/id/london-borough-council/camden,23/08/2018 09:00:10 PM
CUBITT STREET,KING'S CROSS,WC1,35/18,90,530793,182589,-0.115949,51.527077,Plotted By Council Officer,"(51.527077, -0.115949)",http://opendatacommunities.org/id/london-borough-council/camden,23/08/2018 09:00:24 PM
BELSIZE ROAD,KILBURN,NW3,35/18,90,526575,184309,-0.176102,51.543495,Plotted By Council Officer,"(51.543495, -0.176102)",http://opendatacommunities.org/id/london-borough-council/camden,23/08/2018 09:00:27 PM
BRIDGE APPROACH,HAVERSTOCK,NW1,35/18,60,528049,184376,-0.154833,51.543765,Plotted By Council Officer,"(51.543765, -0.154833)",http://opendatacommunities.org/id/london-borough-council/camden,23/08/2018 09:00:20 PM
CAMLEY STREET,ST PANCRAS AND SOMERS TOWN,"N1, NW1",35/18,140,529913,183514,-0.128286,51.535592,Plotted By Council Officer,"(51.535592, -0.128286)",http://opendatacommunities.org/id/london-borough-council/camden,23/08/2018 09:00:21 PM
KILBURN HIGH ROAD,KILBURN,"NW6, NW2",35/18,150,525455,183566,-0.192509,51.537067,Plotted By Council Officer,"(51.537067, -0.192509)",http://opendatacommunities.org/id/london-borough-council/camden,23/08/2018 09:00:10 PM
STAR YARD,HOLBORN AND COVENT GARDEN,WC1,70/35,45,531061,181323,-0.112559,51.515637,Plotted By Council Officer,"(51.515637, -0.112559)",http://opendatacommunities.org/id/london-borough-council/camden,23/08/2018 09:00:27 PM
LYNDHURST ROAD,HAMPSTEAD TOWN,NW3,35/18,60,526643,185227,-0.174792,51.551729,Plotted By Council Officer,"(51.551729, -0.174792)",http://opendatacommunities.org/id/london-borough-council/camden,23/08/2018 09:00:11 PM
CHESTER ROAD,HIGHGATE,N19,35/18,90,528732,186641,-0.144161,51.563965,Plotted By Council Officer,"(51.563965, -0.144161)",http://opendatacommunities.org/id/london-borough-council/camden,23/08/2018 09:00:21 PM
GONDAR GARDENS,FORTUNE GREEN,NW6,35/18,61,524888,185427,-0.20002,51.553918,Plotted By Council Officer,"(51.553918, -0.20002)",http://opendatacommunities.org/id/london-borough-council/camden,23/08/2018 09:00:08 PM
WEST END LANE,WEST HAMPSTEAD,NW6,35/18,60,525422,183770,-0.192912,51.538908,Plotted By Council Officer,"(51.538908, -0.192912)",http://opendatacommunities.org/id/london-borough-council/camden,23/08/2018 09:00:27 PM
HATTON GARDEN,HOLBORN AND COVENT GARDEN,EC1,35/18,90,531349,181754,-0.10825,51.519444,Plotted By Council Officer,"(51.519444, -0.10825)",http://opendatacommunities.org/id/london-borough-council/camden,23/08/2018 09:00:26 PM
MORTIMER PLACE,KILBURN,NW6,35/18,61,525659,183601,-0.189557,51.537336,Plotted By Council Officer,"(51.537336, -0.189557)",http://opendatacommunities.org/id/london-borough-council/camden,23/08/2018 09:00:27 PM
CROSSFIELD ROAD,BELSIZE,NW3,35/18,60,526898,184595,-0.171343,51.545992,Plotted By Council Officer,"(51.545992, -0.171343)",http://opendatacommunities.org/id/london-borough-council/camden,23/08/2018 09:00:14 PM
HOLMES ROAD,KENTISH TOWN,NW5,35/18,96,528712,185026,-0.14504,51.549455,Plotted By Council Officer,"(51.549455, -0.14504)",http://opendatacommunities.org/id/london-borough-council/camden,23/08/2018 09:00:17 PM
KINGSCROFT ROAD,FORTUNE GREEN,NW2,35/18,60,524549,184922,-0.205086,51.549454,Plotted By Council Officer,"(51.549454, -0.205086)",http://opendatacommunities.org/id/london-borough-council/camden,23/08/2018 09:00:08 PM
MORTIMER CRESCENT,KILBURN,NW6,35/18,60,525771,183510,-0.187975,51.536493,Plotted By Council Officer,"(51.536493, -0.187975)",http://opendatacommunities.org/id/london-borough-council/camden,23/08/2018 09:00:27 PM
STRATHRAY GARDENS,BELSIZE,NW3,35/18,60,527022,184520,-0.169583,51.545291,Plotted By Council Officer,"(51.545291, -0.169583)",http://opendatacommunities.org/id/london-borough-council/camden,23/08/2018 09:00:12 PM
DOWNSIDE CRESCENT,GOSPEL OAK,NW3,35/18,60,527506,185177,-0.162369,51.551086,Plotted By Council Officer,"(51.551086, -0.162369)",http://opendatacommunities.org/id/london-borough-council/camden,23/08/2018 09:00:12 PM
GLENHURST AVENUE,HIGHGATE,NW5,35/18,60,528456,185820,-0.14844,51.556649,Plotted By Council Officer,"(51.556649, -0.14844)",http://opendatacommunities.org/id/london-borough-council/camden,23/08/2018 09:00:16 PM
HIGHGATE ROAD,HIGHGATE,NW5,35/18,90,528935,185327,-0.141715,51.55211,Plotted By Council Officer,"(51.55211, -0.141715)",http://opendatacommunities.org/id/london-borough-council/camden,23/08/2018 09:00:16 PM
GRAFTON WAY,BLOOMSBURY,"W1, WC1",35/18,140,529340,182192,-0.137028,51.523843,Plotted By Council Officer,"(51.523843, -0.137028)",http://opendatacommunities.org/id/london-borough-council/camden,23/08/2018 09:00:23 PM
GLENBROOK ROAD,WEST HAMPSTEAD,NW6,35/18,61,525082,185070,-0.19735,51.550666,Plotted By Council Officer,"(51.550666, -0.19735)",http://opendatacommunities.org/id/london-borough-council/camden,23/08/2018 09:00:08 PM
